"Interval"|"ms"|0|0|1,"Utc"|"ms"|0|0|1,"ElapsedTime"|"Min"|0.0|0.0|10,"FrontBP"|"psi"|-5.0|5.0|25,"SteerAng"|"Degrees"|-145|145|25,"Battery"|"Volts"|-5.0|20.0|1,"AccelX"|"G"|-3.0|3.0|25,"AccelY"|"G"|-3.0|3.0|25,"AccelZ"|"G"|-3.0|3.0|25,"Yaw"|"Deg/Sec"|-120|120|25,"Pitch"|"Deg/Sec"|-120|120|25,"Roll"|"Deg/Sec"|-120|120|25,"Gsum"|"G"|0.0|3.0|25,"GsumMax"|"G"|0.0|3.0|25,"GsumPct"|"%"|0|100|25,"RPM"|""|0|10000|25,"TPS"|"%"|0.0|100.0|25,"InjectorPW"|"ms"|0.0|100.0|25,"Baro"|"kPa"|0|105|1,"MAP"|"Psi"|0.0|255.0|25,"Lambda"|""|-2.0|2.0|25,"IAT"|"C"|0.0|200.0|25,"EngineTemp"|"C"|0|200|1,"EOP"|"PSI"|0.0|152.0|25,"EOT"|"F"|0|250|25,"WSFR"|"MPH"|0|150|10,"WSFL"|"MPH"|0|100|10,"WSRR"|"MPH"|0|100|10,"WSRL"|""|0|100|10,"TCSet"|"%"|0.0|100.0|10,"TCSlip"|"%"|0.0|100.0|10,"TCComp"|"deg"|0.0|50.0|10,"TCCut"|"%"|0.0|100.0|10,"Analog8"|""|0.0|5.0|10,"OilTemp"|"F"|0|300|1,"AA_On"|""|0.0|1.0|1,"ThermLF1"|"C"|0|400|50,"ThermLF2"|"C"|0|400|50,"ThermRR1"|"C"|0|400|50,"ThermRR2"|"C"|0|400|50,"ThermLF3"|"C"|0|400|50,"ThermLF4"|"C"|0|400|50,"ThermLF5"|"C"|0|400|50,"ThermLF6"|"C"|0|400|50,"ThermLF7"|"C"|0|400|50,"ThermLF8"|"C"|0|400|50,"ThermRR3"|"C"|0|400|50,"ThermRR4"|"C"|0|400|50,"ThermRR5"|"C"|0|400|50,"ThermRR6"|"C"|0|400|50,"ThermRR7"|"C"|0|400|50,"ThermRR8"|"C"|0|400|50,"AA_LowDrag"|""|0|1|1,"Gear"|""|1|6|10,"AA_On"|""|0.0|1.0|1,"AA_LowDrag"|""|0|1|1,"Fuel_Mix"|""|-10|10|1,"AA_Packages"|""|0.0|1000.0|25,"Latitude"|"Degrees"|-180.0|180.0|10,"Longitude"|"Degrees"|-180.0|180.0|10,"Speed"|"kph"|0.0|150.0|10,"Altitude"|"m"|0.0|4000.0|10,"GPSSats"|""|0|20|10,"GPSQual"|""|0|5|10,"GPSDOP"|""|0.0|20.0|10,"LapCount"|""|0|0|10,"LapTime"|"Min"|0.0|0.0|10,"Sector"|""|0|0|10,"SectorTime"|"Min"|0.0|0.0|10,"PredTime"|"Min"|0.0|0.0|5,"CurrentLap"|""|0|0|10,"Distance"|"mi"|0.0|0.0|10,"SessionTime"|"Min"|0.0|0.0|10
845922,1745295080036,0.0003,0.0,-19,,-0.11,0.04,0.76,3,-0,-1,0.77,0.77,100,2948,0.0,3.32,,12.35,1.054,109.6,,28.5,5,,,,,,,,,,,,0,0,0,0,0,0,0,0,0,0,0,0,0,0,0,0,,,,,,0.0,,,,,,,,,,,,,,,
845942,1745295080056,0.0006,,,,,,,,,,,,,,,,,,,,,,,,,,,,,,,,,,0,0,0,0,0,0,0,0,0,0,0,0,0,0,0,0,,,,,,,,,,,,,,,,,,,,,
845962,1745295080076,0.001,0.0,-27,,-0.12,0.04,0.76,3,-0,-1,0.77,0.77,100,2899,0.0,3.33,,12.35,1.054,109.6,,28.5,5,,,,,,,,,,,,0,0,0,0,0,0,0,0,0,0,0,0,0,0,0,0,,,,,,0.0,,,,,,,,,,,,,,,
845982,1745295080096,0.0013,,,,,,,,,,,,,,,,,,,,,,,,,,,,,,,,,,0,0,0,0,0,0,0,0,0,0,0,0,0,0,0,0,,,,,,,,,,,,,,,,,,,,,
846002,1745295080118,0.0016,0.0,-23,,-0.12,0.01,0.84,2,-0,-1,0.85,0.85,100,2899,0.0,3.33,,12.39,1.056,109.6,,26.5,5,0,4,0,0,0.0,0.0,0.0,0.0,2.25,,,0,0,0,0,0,0,0,0,0,0,0,0,0,0,0,0,,0,,,,0.0,38.985779,-76.950714,0.04,46.3,34,3,0.8,0,0.0,-1,0.0,0.0,0,0.0,0.0016
846022,1745295080138,0.002,,,,,,,,,,,,,,,,,,,,,,,,,,,,,,,,,,0,0,0,0,0,0,0,0,0,0,0,0,0,0,0,0,,,,,,,,,,,,,,,,,,,,,
846042,1745295080158,0.0023,0.0,-12,,-0.13,-0.03,0.95,0,-0,-1,0.96,0.96,100,2931,0.0,3.35,,12.49,1.094,109.6,,26.5,5,,,,,,,,,,,,0,0,0,0,0,0,0,0,0,0,0,0,0,0,0,0,,,,,,0.0,,,,,,,,,,,,,,,
846062,1745295080178,0.0026,,,,,,,,,,,,,,,,,,,,,,,,,,,,,,,,,,0,0,0,0,0,0,0,0,0,0,0,0,0,0,0,0,,,,,,,,,,,,,,,,,,,,,
846082,1745295080202,0.003,0.0,-8,,-0.14,-0.04,1.02,-0,-0,-1,1.03,1.03,100,3007,0.4,3.29,,12.6,1.161,109.6,,26.5,5,,,,,,,,,,,,0,0,0,0,0,0,0,0,0,0,0,0,0,0,0,0,,,,,,0.0,,,,,,,,,,,,,,,
846102,1745295080222,0.0033,,,,,,,,,,,,,,,,,,,,,,,0,4,0,0,0.0,0.0,0.0,0.0,2.26,,,0,0,0,0,0,0,0,0,0,0,0,0,0,0,0,0,,0,,,,,38.985779,-76.950714,0.08,46.3,34,3,0.8,0,0.0,-1,0.0,,0,0.0,0.0033
846122,1745295080242,0.0036,0.0,-23,,-0.13,-0.07,1.08,-1,-0,-0,1.08,1.08,100,2893,2.1,3.71,,12.81,1.167,109.6,,27.9,5,,,,,,,,,,,,0,0,0,0,0,0,0,0,0,0,0,0,0,0,0,0,,,,,,0.0,,,,,,,,,,,,,,,
846142,1745295080262,0.004,,,,,,,,,,,,,,,,,,,,,,,,,,,,,,,,,,0,0,0,0,0,0,0,0,0,0,0,0,0,0,0,0,,,,,,,,,,,,,,,,,,,,,
846162,1745295080282,0.0043,0.0,-15,,-0.11,-0.09,1.1,-0,-0,-0,1.11,1.11,100,2939,3.0,3.97,,12.81,1.167,109.6,,27.9,5,,,,,,,,,,,,0,0,0,0,0,0,0,0,0,0,0,0,0,0,0,0,,,,,,0.0,,,,,,,,,,,,,,,
846182,1745295080302,0.0046,,,,,,,,,,,,,,,,,,,,,,,,,,,,,,,,,,0,0,0,0,0,0,0,0,0,0,0,0,0,0,0,0,,,,,,,,,,,,,,,,,,,,,
846202,1745295080322,0.005,0.0,-27,,-0.1,-0.05,1.1,1,-0,0,1.11,1.11,99,2939,3.0,3.97,,12.91,1.121,109.6,,27.2,5,0,5,0,0,0.0,0.0,0.0,0.0,2.26,,,0,0,0,0,0,0,0,0,0,0,0,0,0,0,0,0,,0,,,,0.0,38.985779,-76.950714,0.05,46.3,34,3,0.8,0,0.0,-1,0.0,0.0,0,0.0,0.005
846222,1745295080342,0.0053,,,,,,,,,,,,,,,,,,,,,,,,,,,,,,,,,,0,0,0,0,0,0,0,0,0,0,0,0,0,0,0,0,,,,,,,,,,,,,,,,,,,,,
846242,1745295080362,0.0056,0.0,-8,,-0.08,-0.02,1.07,2,-0,0,1.07,1.11,96,2958,4.1,4.18,,13.03,1.114,109.6,,27.2,5,,,,,,,,,,,,0,0,0,0,0,0,0,0,0,0,0,0,0,0,0,0,,,,,,0.0,,,,,,,,,,,,,,,
846262,1745295080382,0.006,,,,,,,,,,,,,,,,,,,,,,,,,,,,,,,,,,0,0,0,0,0,0,0,0,0,0,0,0,0,0,0,0,,,,,,,,,,,,,,,,,,,,,
846282,1745295080404,0.0063,0.0,-8,,-0.06,0.0,1.03,2,-0,1,1.03,1.11,93,2944,5.6,4.09,,13.17,1.111,109.6,,27.2,5,,,,,,,,,,,,0,0,0,0,0,0,0,0,0,0,0,0,0,0,0,0,,,,,,0.0,,,,,,,,,,,,,,,
846302,1745295080424,0.0066,,,,,,,,,,,,,,,,,,,,,,,0,3,0,0,0.0,0.0,0.0,0.0,2.25,,,0,0,0,0,0,0,0,0,0,0,0,0,0,0,0,0,,0,,,,,38.985779,-76.950714,0.08,46.3,34,3,0.8,0,0.0,-1,0.0,,0,0.0,0.0066
846322,1745295080444,0.007,0.0,-15,,-0.04,0.01,1.03,3,-0,1,1.03,1.11,93,3021,7.0,4.0,,13.32,1.114,109.6,,27.5,5,,,,,,,,,,,,0,0,0,0,0,0,0,0,0,0,0,0,0,0,0,0,,,,,,0.0,,,,,,,,,,,,,,,
846342,1745295080464,0.0073,,,,,,,,,,,,,,,,,,,,,,,,,,,,,,,,,,0,0,0,0,0,0,0,0,0,0,0,0,0,0,0,0,,,,,,,,,,,,,,,,,,,,,
846362,1745295080484,0.0076,0.0,-12,,-0.03,-0.02,1.09,3,-0,1,1.09,1.11,98,3154,7.4,3.93,,13.32,1.114,109.6,,27.5,5,,,,,,,,,,,,0,0,0,0,0,0,0,0,0,0,0,0,0,0,0,0,,,,,,0.0,,,,,,,,,,,,,,,
846382,1745295080504,0.008,,,,,,,,,,,,,,,,,,,,,,,,,,,,,,,,,,0,0,0,0,0,0,0,0,0,0,0,0,0,0,0,0,,,,,,,,,,,,,,,,,,,,,
846402,1745295080520,0.0083,0.0,-4,13.62,-0.06,-0.09,1.1,1,-0,0,1.1,1.11,99,3154,7.4,3.93,15,13.28,1.105,109.6,180,29.5,5,0,5,0,0,0.0,24.0,0.0,0.0,2.25,0,1.0,0,0,0,0,0,0,0,0,0,0,0,0,0,0,0,0,0,0,1.0,0,0,0.0,38.985779,-76.950714,0.0,46.3,34,3,0.8,0,0.0,-1,0.0,0.0,0,0.0,0.0083
846422,1745295080540,0.0086,,,,,,,,,,,,,,,,,,,,,,,,,,,,,,,,,,0,0,0,0,0,0,0,0,0,0,0,0,0,0,0,0,,,,,,,,,,,,,,,,,,,,,
846442,1745295080560,0.009,0.0,5,,-0.05,0.01,1.1,2,-0,1,1.1,1.11,99,3458,7.4,3.84,,13.27,1.108,109.6,,29.5,5,,,,,,,,,,,,0,0,0,0,0,0,0,0,0,0,0,0,0,0,0,0,,,,,,0.0,,,,,,,,,,,,,,,
846462,1745295080580,0.0093,,,,,,,,,,,,,,,,,,,,,,,,,,,,,,,,,,0,0,0,0,0,0,0,0,0,0,0,0,0,0,0,0,,,,,,,,,,,,,,,,,,,,,
846482,1745295080600,0.0096,0.0,-15,,-0.06,0.1,1.03,1,-0,0,1.04,1.11,93,3536,7.5,3.75,,13.2,1.18,109.6,,29.5,5,,,,,,,,,,,,0,0,0,0,0,0,0,0,0,0,0,0,0,0,0,0,,,,,,0.0,,,,,,,,,,,,,,,
846502,1745295080619,0.01,,,,,,,,,,,,,,,,,,,,,,,0,18,0,0,0.0,24.0,0.0,0.0,2.26,,,0,0,0,0,0,0,0,0,0,0,0,0,0,0,0,0,,0,,,,,38.985779,-76.950714,0.09,46.3,34,3,0.8,0,0.0,-1,0.0,,0,0.0,0.01
846522,1745295080639,0.0103,0.0,-8,,-0.08,0.08,1.08,1,-0,0,1.08,1.11,97,3516,7.8,3.67,,13.08,1.159,109.6,,33.3,5,,,,,,,,,,,,0,0,0,0,0,0,0,0,0,0,0,0,0,0,0,0,,,,,,0.0,,,,,,,,,,,,,,,
846542,1745295080659,0.0106,,,,,,,,,,,,,,,,,,,,,,,,,,,,,,,,,,0,0,0,0,0,0,0,0,0,0,0,0,0,0,0,0,,,,,,,,,,,,,,,,,,,,,
846562,1745295080679,0.011,0.0,-27,,-0.07,0.12,1.08,1,-0,1,1.09,1.11,98,3552,9.4,3.77,,13.08,1.159,109.6,,33.3,5,,,,,,,,,,,,0,0,0,0,0,0,0,0,0,0,0,0,0,0,0,0,,,,,,0.0,,,,,,,,,,,,,,,
846582,1745295080699,0.0113,,,,,,,,,,,,,,,,,,,,,,,,,,,,,,,,,,0,0,0,0,0,0,0,0,0,0,0,0,0,0,0,0,,,,,,,,,,,,,,,,,,,,,
846602,1745295080719,0.0116,0.0,-8,,-0.07,0.17,1.06,2,-0,1,1.07,1.11,96,3552,9.4,3.77,,13.19,1.106,109.6,,33.5,5,0,16,0,0,0.0,24.0,0.0,0.0,2.26,,,0,0,0,0,0,0,0,0,0,0,0,0,0,0,0,0,,0,,,,0.0,38.985779,-76.950714,0.05,46.3,34,3,0.8,0,0.0,-1,0.0,0.0,0,0.0,0.0116
846622,1745295080739,0.012,,,,,,,,,,,,,,,,,,,,,,,,,,,,,,,,,,0,0,0,0,0,0,0,0,0,0,0,0,0,0,0,0,,,,,,,,,,,,,,,,,,,,,
846642,1745295080759,0.0123,0.0,3,,-0.08,0.08,1.01,1,-0,-0,1.02,1.11,92,3560,9.9,3.77,,13.2,1.105,109.6,,33.5,5,,,,,,,,,,,,0,0,0,0,0,0,0,0,0,0,0,0,0,0,0,0,,,,,,0.0,,,,,,,,,,,,,,,
846662,1745295080779,0.0126,,,,,,,,,,,,,,,,,,,,,,,,,,,,,,,,,,0,0,0,0,0,0,0,0,0,0,0,0,0,0,0,0,,,,,,,,,,,,,,,,,,,,,
846682,1745295080799,0.013,0.0,-12,,-0.07,-0.01,1.04,-0,-0,0,1.04,1.11,94,3625,10.0,3.8,,13.25,1.135,109.6,,33.5,5,,,,,,,,,,,,0,0,0,0,0,0,0,0,0,0,0,0,0,0,0,0,,,,,,0.0,,,,,,,,,,,,,,,
846702,1745295080819,0.0133,,,,,,,,,,,,,,,,,,,,,,,0,17,0,0,0.0,24.0,0.0,0.0,2.25,,,0,0,0,0,0,0,0,0,0,0,0,0,0,0,0,0,,0,,,,,38.985779,-76.950714,0.07,46.3,34,3,0.8,0,0.0,-1,0.0,,0,0.0,0.0133
846722,1745295080839,0.0136,0.0,5,,-0.07,-0.03,1.05,0,-0,0,1.06,1.11,95,3601,10.2,3.74,,13.19,1.165,109.6,,34.1,5,,,,,,,,,,,,0,0,0,0,0,0,0,0,0,0,0,0,0,0,0,0,,,,,,0.0,,,,,,,,,,,,,,,
846742,1745295080859,0.014,,,,,,,,,,,,,,,,,,,,,,,,,,,,,,,,,,0,0,0,0,0,0,0,0,0,0,0,0,0,0,0,0,,,,,,,,,,,,,,,,,,,,,
846762,1745295080879,0.0143,0.0,-12,,-0.08,0.02,1.03,0,-0,0,1.04,1.11,93,3735,10.3,3.74,,13.19,1.165,109.6,,34.1,5,,,,,,,,,,,,0,0,0,0,0,0,0,0,0,0,0,0,0,0,0,0,,,,,,0.0,,,,,,,,,,,,,,,
846782,1745295080903,0.0146,,,,,,,,,,,,,,,,,,,,,,,,,,,,,,,,,,0,0,0,0,0,0,0,0,0,0,0,0,0,0,0,0,,,,,,,,,,,,,,,,,,,,,
846802,1745295080923,0.015,0.0,-0,,-0.09,0.03,1.03,-0,-0,0,1.03,1.11,92,3735,10.3,3.74,,13.2,1.173,109.6,,35.6,5,0,9,0,0,0.0,0.0,0.0,0.0,2.25,,,0,0,0,0,0,0,0,0,0,0,0,0,0,0,0,0,,0,,,,0.0,38.985779,-76.950714,0.04,46.3,34,3,0.8,0,0.0,-1,0.0,0.0,0,0.0,0.015
846822,1745295080943,0.0153,,,,,,,,,,,,,,,,,,,,,,,,,,,,,,,,,,0,0,0,0,0,0,0,0,0,0,0,0,0,0,0,0,,,,,,,,,,,,,,,,,,,,,
846842,1745295080963,0.0156,0.0,8,,-0.09,-0.01,1.02,0,-0,0,1.02,1.11,92,3755,10.4,3.66,,13.07,1.203,109.6,,35.6,5,,,,,,,,,,,,0,0,0,0,0,0,0,0,0,0,0,0,0,0,0,0,,,,,,0.0,,,,,,,,,,,,,,,
846862,1745295080983,0.016,,,,,,,,,,,,,,,,,,,,,,,,,,,,,,,,,,0,0,0,0,0,0,0,0,0,0,0,0,0,0,0,0,,,,,,,,,,,,,,,,,,,,,
846882,1745295081003,0.0163,0.0,-0,,-0.08,-0.02,1.0,0,-0,0,1.0,1.11,90,3816,10.4,3.67,,13.03,1.198,109.6,,35.6,5,,,,,,,,,,,,0,0,0,0,0,0,0,0,0,0,0,0,0,0,0,0,,,,,,0.0,,,,,,,,,,,,,,,
846902,1745295081015,0.0166,,,,,,,,,,,,,,,,,,,,,,,0,4,0,0,0.0,24.0,0.0,0.0,2.25,,,0,0,0,0,0,0,0,0,0,0,0,0,0,0,0,0,,0,,,,,38.985779,-76.950714,0.04,46.3,34,3,0.8,0,0.0,-1,0.0,,0,0.0,0.0166
846922,1745295081035,0.017,0.0,3,,-0.08,-0.03,0.97,-0,-0,-0,0.97,1.11,87,3821,10.4,3.59,,13.03,1.198,109.6,,36.6,5,,,,,,,,,,,,0,0,0,0,0,0,0,0,0,0,0,0,0,0,0,0,,,,,,0.0,,,,,,,,,,,,,,,
846942,1745295081055,0.0173,,,,,,,,,,,,,,,,,,,,,,,,,,,,,,,,,,0,0,0,0,0,0,0,0,0,0,0,0,0,0,0,0,,,,,,,,,,,,,,,,,,,,,
846962,1745295081075,0.0176,0.0,-8,,-0.07,-0.02,0.96,-0,-0,-0,0.96,1.11,87,3859,10.4,3.6,,13.03,1.198,109.6,,36.6,5,,,,,,,,,,,,0,0,0,0,0,0,0,0,0,0,0,0,0,0,0,0,,,,,,0.0,,,,,,,,,,,,,,,
846982,1745295081101,0.018,,,,,,,,,,,,,,,,,,,,,,,,,,,,,,,,,,0,0,0,0,0,0,0,0,0,0,0,0,0,0,0,0,,,,,,,,,,,,,,,,,,,,,
847002,1745295081121,0.0183,0.0,3,,-0.08,0.02,0.97,-0,-0,-0,0.98,1.11,88,3859,10.4,3.6,,13.03,1.216,109.6,,37.0,5,0,213,0,0,0.0,24.0,0.0,0.0,2.26,,,0,0,0,0,0,0,0,0,0,0,0,0,0,0,0,0,,0,,,,0.0,38.985779,-76.950714,0.06,46.3,34,3,0.8,0,0.0,-1,0.0,0.0,0,0.0,0.0183
847022,1745295081141,0.0187,,,,,,,,,,,,,,,,,,,,,,,,,,,,,,,,,,0,0,0,0,0,0,0,0,0,0,0,0,0,0,0,0,,,,,,,,,,,,,,,,,,,,,
847042,1745295081161,0.019,0.0,5,,-0.09,0.06,1.02,0,-0,0,1.03,1.11,92,3861,10.4,3.6,,12.99,1.227,107.8,,37.0,5,,,,,,,,,,,,0,0,0,0,0,0,0,0,0,0,0,0,0,0,0,0,,,,,,0.0,,,,,,,,,,,,,,,
847062,1745295081181,0.0193,,,,,,,,,,,,,,,,,,,,,,,,,,,,,,,,,,0,0,0,0,0,0,0,0,0,0,0,0,0,0,0,0,,,,,,,,,,,,,,,,,,,,,
847082,1745295081201,0.0196,0.0,3,,-0.08,-0.01,1.06,0,-0,0,1.06,1.11,95,3860,10.3,3.54,,13.0,1.243,107.8,,37.0,5,,,,,,,,,,,,0,0,0,0,0,0,0,0,0,0,0,0,0,0,0,0,,,,,,0.0,,,,,,,,,,,,,,,
847102,1745295081221,0.02,,,,,,,,,,,,,,,,,,,,,,,0,18,0,0,0.0,24.0,0.0,0.0,2.26,,,0,0,0,0,0,0,0,0,0,0,0,0,0,0,0,0,,0,,,,,38.985779,-76.950714,0.06,46.3,34,3,0.8,0,0.0,-1,0.0,,0,0.0,0.02
847122,1745295081241,0.0203,0.0,8,,-0.08,-0.05,1.02,-0,-0,0,1.03,1.11,92,3906,10.2,3.58,,12.99,1.247,107.8,,37.2,5,,,,,,,,,,,,0,0,0,0,0,0,0,0,0,0,0,0,0,0,0,0,,,,,,0.0,,,,,,,,,,,,,,,
847142,1745295081261,0.0206,,,,,,,,,,,,,,,,,,,,,,,,,,,,,,,,,,0,0,0,0,0,0,0,0,0,0,0,0,0,0,0,0,,,,,,,,,,,,,,,,,,,,,
847162,1745295081281,0.021,0.0,-0,,-0.07,-0.06,0.99,-1,-0,0,0.99,1.11,89,3870,10.2,3.52,,12.99,1.247,107.8,,37.2,5,,,,,,,,,,,,0,0,0,0,0,0,0,0,0,0,0,0,0,0,0,0,,,,,,0.0,,,,,,,,,,,,,,,
847182,1745295081303,0.0213,,,,,,,,,,,,,,,,,,,,,,,,,,,,,,,,,,0,0,0,0,0,0,0,0,0,0,0,0,0,0,0,0,,,,,,,,,,,,,,,,,,,,,
847202,1745295081323,0.0216,0.0,3,,-0.07,-0.07,0.96,-0,-0,-0,0.96,1.11,87,3870,10.2,3.52,,13.0,1.249,107.8,,37.2,5,0,18,0,0,0.0,24.0,0.0,0.0,2.26,,,0,0,0,0,0,0,0,0,0,0,0,0,0,0,0,0,,0,,,,0.0,38.985779,-76.950714,0.04,46.3,34,3,0.8,0,0.0,-1,0.0,0.0,0,0.0,0.0216
847222,1745295081343,0.022,,,,,,,,,,,,,,,,,,,,,,,,,,,,,,,,,,0,0,0,0,0,0,0,0,0,0,0,0,0,0,0,0,,,,,,,,,,,,,,,,,,,,,
847242,1745295081363,0.0223,0.0,3,,-0.07,-0.05,0.96,-0,-0,-0,0.96,1.11,87,3860,10.2,3.59,,13.03,1.248,107.8,,37.2,5,,,,,,,,,,,,0,0,0,0,0,0,0,0,0,0,0,0,0,0,0,0,,,,,,0.0,,,,,,,,,,,,,,,
847262,1745295081383,0.0226,,,,,,,,,,,,,,,,,,,,,,,,,,,,,,,,,,0,0,0,0,0,0,0,0,0,0,0,0,0,0,0,0,,,,,,,,,,,,,,,,,,,,,
847282,1745295081405,0.023,0.0,8,,-0.06,-0.07,0.99,-0,-0,-0,1.0,1.11,89,3787,10.2,3.64,,13.03,1.241,107.8,,37.2,5,,,,,,,,,,,,0,0,0,0,0,0,0,0,0,0,0,0,0,0,0,0,,,,,,0.0,,,,,,,,,,,,,,,
847302,1745295081425,0.0233,,,,,,,,,,,,,,,,,,,,,,,0,18,0,0,0.0,24.0,0.0,0.0,2.26,,,0,0,0,0,0,0,0,0,0,0,0,0,0,0,0,0,,0,,,,,38.985779,-76.950714,0.04,46.3,34,3,0.8,0,0.0,-1,0.0,,0,0.0,0.0233
847322,1745295081445,0.0236,0.0,17,,-0.06,-0.09,1.03,-1,-0,-0,1.03,1.11,93,3642,10.4,3.68,,13.05,1.248,107.8,,35.9,5,,,,,,,,,,,,0,0,0,0,0,0,0,0,0,0,0,0,0,0,0,0,,,,,,0.0,,,,,,,,,,,,,,,
847342,1745295081465,0.024,,,,,,,,,,,,,,,,,,,,,,,,,,,,,,,,,,0,0,0,0,0,0,0,0,0,0,0,0,0,0,0,0,,,,,,,,,,,,,,,,,,,,,
847362,1745295081485,0.0243,0.0,8,,-0.05,-0.01,1.04,-0,-0,0,1.04,1.11,93,3518,10.3,3.86,,13.05,1.248,107.8,,35.9,5,,,,,,,,,,,,0,0,0,0,0,0,0,0,0,0,0,0,0,0,0,0,,,,,,0.0,,,,,,,,,,,,,,,
847382,1745295081501,0.0246,,,,,,,,,,,,,,,,,,,,,,,,,,,,,,,,,,0,0,0,0,0,0,0,0,0,0,0,0,0,0,0,0,,,,,,,,,,,,,,,,,,,,,
847402,1745295081521,0.025,0.0,14,13.66,-0.05,0.07,0.99,0,-0,0,0.99,1.11,89,3518,10.3,3.86,15,13.25,1.237,107.8,180,33.0,5,0,22,0,0,0.0,24.0,0.0,0.0,2.25,0,1.0,0,0,0,0,0,0,0,0,0,0,0,0,0,0,0,0,0,0,1.0,0,0,0.0,38.985779,-76.950714,0.14,46.3,34,3,0.8,0,0.0,-1,0.0,0.0,0,0.0,0.025
847422,1745295081541,0.0253,,,,,,,,,,,,,,,,,,,,,,,,,,,,,,,,,,0,0,0,0,0,0,0,0,0,0,0,0,0,0,0,0,,,,,,,,,,,,,,,,,,,,,
847442,1745295081561,0.0256,0.0,17,,-0.04,0.01,1.05,-0,-0,0,1.05,1.11,95,3430,10.8,3.92,,13.36,1.251,107.8,,33.0,5,,,,,,,,,,,,0,0,0,0,0,0,0,0,0,0,0,0,0,0,0,0,,,,,,0.0,,,,,,,,,,,,,,,
847462,1745295081581,0.026,,,,,,,,,,,,,,,,,,,,,,,,,,,,,,,,,,0,0,0,0,0,0,0,0,0,0,0,0,0,0,0,0,,,,,,,,,,,,,,,,,,,,,
847482,1745295081601,0.0263,0.0,20,,-0.05,-0.01,1.02,-1,-0,-0,1.02,1.11,92,3238,14.6,4.37,,13.61,1.249,107.8,,33.0,5,,,,,,,,,,,,0,0,0,0,0,0,0,0,0,0,0,0,0,0,0,0,,,,,,0.0,,,,,,,,,,,,,,,
847502,1745295081621,0.0266,,,,,,,,,,,,,,,,,,,,,,,0,18,0,0,0.0,24.0,0.0,0.0,2.25,,,0,0,0,0,0,0,0,0,0,0,0,0,0,0,0,0,,0,,,,,38.985779,-76.950714,0.34,46.3,34,3,0.8,0,0.0,-1,0.0,,0,0.0,0.0266
847522,1745295081641,0.027,0.0,14,,-0.05,0.07,0.94,-0,-0,0,0.95,1.11,85,3232,16.9,4.67,,13.82,1.244,107.8,,30.3,5,,,,,,,,,,,,0,0,0,0,0,0,0,0,0,0,0,0,0,0,0,0,,,,,,0.0,,,,,,,,,,,,,,,
847542,1745295081661,0.0273,,,,,,,,,,,,,,,,,,,,,,,,,,,,,,,,,,0,0,0,0,0,0,0,0,0,0,0,0,0,0,0,0,,,,,,,,,,,,,,,,,,,,,
847562,1745295081681,0.0276,0.0,45,,-0.02,0.09,0.97,1,-0,0,0.98,1.11,88,3188,19.4,4.9,,13.82,1.244,107.8,,30.3,5,,,,,,,,,,,,0,0,0,0,0,0,0,0,0,0,0,0,0,0,0,0,,,,,,0.0,,,,,,,,,,,,,,,
847582,1745295081701,0.028,,,,,,,,,,,,,,,,,,,,,,,,,,,,,,,,,,0,0,0,0,0,0,0,0,0,0,0,0,0,0,0,0,,,,,,,,,,,,,,,,,,,,,
847602,1745295081720,0.0283,0.0,107,,-0.01,-0.02,1.06,-0,-0,0,1.06,1.11,95,3188,19.4,4.9,,13.88,1.21,107.8,,29.7,5,0,16,0,0,0.0,24.0,0.0,0.0,2.27,,,0,0,0,0,0,0,0,0,0,0,0,0,0,0,0,0,,0,,,,0.0,38.985779,-76.950714,0.51,46.3,34,3,0.8,0,0.0,-1,0.0,0.0,0,0.0,0.0283
847622,1745295081740,0.0286,,,,,,,,,,,,,,,,,,,,,,,,,,,,,,,,,,0,0,0,0,0,0,0,0,0,0,0,0,0,0,0,0,,,,,,,,,,,,,,,,,,,,,
847642,1745295081760,0.029,0.0,51,,-0.04,-0.06,1.06,-2,-0,-0,1.06,1.11,95,3127,21.4,4.78,,14.02,1.17,107.8,,29.7,5,,,,,,,,,,,,0,0,0,0,0,0,0,0,0,0,0,0,0,0,0,0,,,,,,0.0,,,,,,,,,,,,,,,
847662,1745295081780,0.0293,,,,,,,,,,,,,,,,,,,,,,,,,,,,,,,,,,0,0,0,0,0,0,0,0,0,0,0,0,0,0,0,0,,,,,,,,,,,,,,,,,,,,,
847682,1745295081800,0.0296,0.0,119,,-0.03,0.03,0.96,-0,-0,0,0.96,1.11,86,3306,21.9,4.72,,14.03,1.154,107.8,,29.7,5,,,,,,,,,,,,0,0,0,0,0,0,0,0,0,0,0,0,0,0,0,0,,,,,,0.0,,,,,,,,,,,,,,,
847702,1745295081820,0.03,,,,,,,,,,,,,,,,,,,,,,,0,16,0,0,0.0,24.0,0.0,0.0,2.27,,,0,0,0,0,0,0,0,0,0,0,0,0,0,0,0,0,,0,,,,,38.985779,-76.950714,0.67,46.3,34,3,0.8,0,0.0,-1,0.0,,0,0.0,0.03
847722,1745295081840,0.0303,0.0,36,,-0.02,-0.0,1.04,-1,-0,0,1.04,1.11,93,3275,24.1,4.55,,14.06,1.172,107.8,,30.9,5,,,,,,,,,,,,0,0,0,0,0,0,0,0,0,0,0,0,0,0,0,0,,,,,,0.0,,,,,,,,,,,,,,,
847742,1745295081860,0.0306,,,,,,,,,,,,,,,,,,,,,,,,,,,,,,,,,,0,0,0,0,0,0,0,0,0,0,0,0,0,0,0,0,,,,,,,,,,,,,,,,,,,,,
847762,1745295081880,0.031,0.0,62,,-0.03,0.0,0.96,-1,-0,0,0.96,1.11,86,3291,28.5,4.47,,14.06,1.172,107.8,,30.9,5,,,,,,,,,,,,0,0,0,0,0,0,0,0,0,0,0,0,0,0,0,0,,,,,,0.0,,,,,,,,,,,,,,,
847782,1745295081904,0.0313,,,,,,,,,,,,,,,,,,,,,,,,,,,,,,,,,,0,0,0,0,0,0,0,0,0,0,0,0,0,0,0,0,,,,,,,,,,,,,,,,,,,,,
847802,1745295081924,0.0316,0.0,25,,-0.03,-0.06,1.01,-1,-0,0,1.01,1.11,91,3291,28.5,4.47,,14.18,1.133,107.8,,31.4,5,0,16,0,0,0.0,46.0,0.0,0.0,2.26,,,0,0,0,0,0,0,0,0,0,0,0,0,0,0,0,0,,0,,,,0.0,38.985779,-76.950714,0.91,46.3,34,3,0.8,0,0.0,-1,0.0,0.0,0,0.0,0.0316
847822,1745295081944,0.032,,,,,,,,,,,,,,,,,,,,,,,,,,,,,,,,,,0,0,0,0,0,0,0,0,0,0,0,0,0,0,0,0,,,,,,,,,,,,,,,,,,,,,
847842,1745295081964,0.0323,0.0,36,,-0.02,0.02,0.98,-0,-0,0,0.98,1.11,88,3482,30.5,4.82,,14.2,1.134,107.8,,31.4,5,,,,,,,,,,,,0,0,0,0,0,0,0,0,0,0,0,0,0,0,0,0,,,,,,0.0,,,,,,,,,,,,,,,
847862,1745295081984,0.0326,,,,,,,,,,,,,,,,,,,,,,,,,,,,,,,,,,0,0,0,0,0,0,0,0,0,0,0,0,0,0,0,0,,,,,,,,,,,,,,,,,,,,,
847882,1745295082004,0.033,0.0,28,,-0.02,-0.1,0.97,-1,-0,-0,0.98,1.11,88,3457,30.7,4.89,,14.14,1.118,107.8,,31.4,5,,,,,,,,,,,,0,0,0,0,0,0,0,0,0,0,0,0,0,0,0,0,,,,,,0.0,,,,,,,,,,,,,,,
847902,1745295082014,0.0333,,,,,,,,,,,,,,,,,,,,,,,0,16,0,0,0.0,64.0,0.0,0.0,2.26,,,0,0,0,0,0,0,0,0,0,0,0,0,0,0,0,0,,0,,,,,38.985779,-76.950714,1.1,46.3,34,3,0.8,0,0.0,-1,0.0,,0,0.0,0.0333
847922,1745295082034,0.0336,0.0,70,,-0.01,-0.17,1.02,-2,-0,-0,1.03,1.11,92,3662,30.7,4.9,,14.19,1.112,107.8,,33.6,5,,,,,,,,,,,,0,0,0,0,0,0,0,0,0,0,0,0,0,0,0,0,,,,,,0.0,,,,,,,,,,,,,,,
847942,1745295082054,0.034,,,,,,,,,,,,,,,,,,,,,,,,,,,,,,,,,,0,0,0,0,0,0,0,0,0,0,0,0,0,0,0,0,,,,,,,,,,,,,,,,,,,,,
847962,1745295082074,0.0343,0.0,22,,-0.0,-0.16,1.01,-2,-0,-0,1.02,1.11,92,3707,30.6,4.94,,14.19,1.112,107.8,,33.6,5,,,,,,,,,,,,0,0,0,0,0,0,0,0,0,0,0,0,0,0,0,0,,,,,,0.0,,,,,,,,,,,,,,,
847982,1745295082094,0.0347,,,,,,,,,,,,,,,,,,,,,,,,,,,,,,,,,,0,0,0,0,0,0,0,0,0,0,0,0,0,0,0,0,,,,,,,,,,,,,,,,,,,,,
848002,1745295082120,0.035,0.0,31,,0.02,-0.03,1.05,0,-0,0,1.05,1.11,94,3707,30.6,4.94,,14.12,1.11,107.8,,37.2,5,0,16,1,1,0.0,73.0,0.0,0.0,2.26,,,0,0,0,0,0,0,0,0,0,0,0,0,0,0,0,0,,0,,,,0.0,38.985779,-76.950722,1.43,46.3,34,3,0.8,0,0.0,-1,0.0,0.0,0,0.0,0.035
848022,1745295082140,0.0353,,,,,,,,,,,,,,,,,,,,,,,,,,,,,,,,,,0,0,0,0,0,0,0,0,0,0,0,0,0,0,0,0,,,,,,,,,,,,,,,,,,,,,
848042,1745295082160,0.0356,0.0,28,,0.06,-0.11,0.95,0,-0,-0,0.96,1.11,86,4265,30.6,4.94,,14.07,1.13,107.8,,37.2,5,,,,,,,,,,,,0,0,0,0,0,0,0,0,0,0,0,0,0,0,0,0,,,,,,0.0,,,,,,,,,,,,,,,
848062,1745295082180,0.036,,,,,,,,,,,,,,,,,,,,,,,,,,,,,,,,,,0,0,0,0,0,0,0,0,0,0,0,0,0,0,0,0,,,,,,,,,,,,,,,,,,,,,
848082,1745295082200,0.0363,0.0,39,,0.08,0.01,1.02,2,-0,0,1.02,1.11,92,4690,30.5,4.81,,13.88,1.092,107.8,,37.2,5,,,,,,,,,,,,0,0,0,0,0,0,0,0,0,0,0,0,0,0,0,0,,,,,,0.0,,,,,,,,,,,,,,,
848102,1745295082220,0.0366,,,,,,,,,,,,,,,,,,,,,,,1,16,1,1,0.0,90.0,0.0,0.0,2.26,,,0,0,0,0,0,0,0,0,0,0,0,0,0,0,0,0,,0,,,,,38.985779,-76.950722,1.69,46.3,34,3,0.8,0,0.0,-1,0.0,,0,0.0,0.0366
848122,1745295082240,0.037,0.0,34,,0.07,-0.0,0.99,1,-0,0,1.0,1.11,90,5083,30.5,4.75,,13.88,1.092,107.8,,45.6,5,,,,,,,,,,,,0,0,0,0,0,0,0,0,0,0,0,0,0,0,0,0,,,,,,0.0,,,,,,,,,,,,,,,
848142,1745295082260,0.0373,,,,,,,,,,,,,,,,,,,,,,,,,,,,,,,,,,0,0,0,0,0,0,0,0,0,0,0,0,0,0,0,0,,,,,,,,,,,,,,,,,,,,,
848162,1745295082280,0.0376,0.0,22,,0.06,-0.03,1.0,-0,-0,0,1.01,1.11,90,5726,30.5,4.71,,13.82,1.001,107.8,,45.6,5,,,,,,,,,,,,0,0,0,0,0,0,0,0,0,0,0,0,0,0,0,0,,,,,,0.0,,,,,,,,,,,,,,,
848182,1745295082304,0.038,,,,,,,,,,,,,,,,,,,,,,,,,,,,,,,,,,0,0,0,0,0,0,0,0,0,0,0,0,0,0,0,0,,,,,,,,,,,,,,,,,,,,,
848202,1745295082324,0.0383,0.0,25,,0.06,-0.01,1.06,-1,-0,1,1.07,1.11,96,5726,30.5,4.71,,13.43,0.946,107.8,,56.1,5,1,16,1,1,0.0,108.0,0.0,0.0,2.26,,,0,0,0,0,0,0,0,0,0,0,0,0,0,0,0,0,,0,,,,0.0,38.985779,-76.950722,2.14,46.3,34,3,0.8,0,0.0,-1,0.0,0.0,0,0.0,0.0383
848222,1745295082344,0.0386,,,,,,,,,,,,,,,,,,,,,,,,,,,,,,,,,,0,0,0,0,0,0,0,0,0,0,0,0,0,0,0,0,,,,,,,,,,,,,,,,,,,,,
848242,1745295082364,0.039,0.0,28,,0.07,-0.13,1.0,-1,0,0,1.01,1.11,91,6193,30.5,4.75,,13.27,0.904,107.8,,56.1,5,,,,,,,,,,,,0,0,0,0,0,0,0,0,0,0,0,0,0,0,0,0,,,,,,0.0,,,,,,,,,,,,,,,
848262,1745295082384,0.0393,,,,,,,,,,,,,,,,,,,,,,,,,,,,,,,,,,0,0,0,0,0,0,0,0,0,0,0,0,0,0,0,0,,,,,,,,,,,,,,,,,,,,,
848282,1745295082404,0.0396,0.0,39,,0.08,-0.08,1.04,-2,0,1,1.05,1.11,94,6466,30.2,4.93,,13.05,0.968,107.8,,56.1,5,,,,,,,,,,,,0,0,0,0,0,0,0,0,0,0,0,0,0,0,0,0,,,,,,0.0,,,,,,,,,,,,,,,
848302,1745295082424,0.04,,,,,,,,,,,,,,,,,,,,,,,1,16,1,1,0.0,134.0,0.0,0.0,2.26,,,0,0,0,0,0,0,0,0,0,0,0,0,0,0,0,0,,0,,,,,38.985779,-76.950722,2.74,46.3,34,3,0.8,0,0.0,-1,0.0,,0,0.0,0.04
848322,1745295082444,0.0403,0.0,34,,0.07,-0.06,1.05,-2,0,0,1.05,1.11,94,6685,30.2,5.06,,13.01,1.015,107.8,,63.7,5,,,,,,,,,,,,0,0,0,0,0,0,0,0,0,0,0,0,0,0,0,0,,,,,,0.0,,,,,,,,,,,,,,,
848342,1745295082464,0.0406,,,,,,,,,,,,,,,,,,,,,,,,,,,,,,,,,,0,0,0,0,0,0,0,0,0,0,0,0,0,0,0,0,,,,,,,,,,,,,,,,,,,,,
848362,1745295082484,0.041,0.0,11,,0.07,-0.12,1.02,-2,0,0,1.03,1.11,93,6912,25.5,4.99,,13.01,1.015,107.8,,63.7,5,,,,,,,,,,,,0,0,0,0,0,0,0,0,0,0,0,0,0,0,0,0,,,,,,0.0,,,,,,,,,,,,,,,
848382,1745295082504,0.0413,,,,,,,,,,,,,,,,,,,,,,,,,,,,,,,,,,0,0,0,0,0,0,0,0,0,0,0,0,0,0,0,0,,,,,,,,,,,,,,,,,,,,,
848402,1745295082524,0.0416,0.0,31,13.6,0.1,-0.12,1.01,-1,0,0,1.02,1.11,92,6912,25.5,4.99,15,12.71,1.008,107.8,178,65.9,5,2,16,2,2,0.0,174.0,0.0,0.0,2.26,0,1.0,0,0,0,0,0,0,0,0,0,0,0,0,0,0,0,0,0,0,1.0,0,0,0.0,38.985779,-76.950722,3.61,46.3,34,3,0.8,0,0.0,-1,0.0,0.0,0,0.0001,0.0416
848422,1745295082544,0.042,,,,,,,,,,,,,,,,,,,,,,,,,,,,,,,,,,0,0,0,0,0,0,0,0,0,0,0,0,0,0,0,0,,,,,,,,,,,,,,,,,,,,,
848442,1745295082564,0.0423,0.0,48,,0.09,-0.12,1.04,-2,0,0,1.05,1.11,94,7056,21.5,5.15,,12.15,0.974,107.8,,65.9,5,,,,,,,,,,,,0,0,0,0,0,0,0,0,0,0,0,0,0,0,0,0,,,,,,0.0,,,,,,,,,,,,,,,
848462,1745295082584,0.0426,,,,,,,,,,,,,,,,,,,,,,,,,,,,,,,,,,0,0,0,0,0,0,0,0,0,0,0,0,0,0,0,0,,,,,,,,,,,,,,,,,,,,,
848482,1745295082604,0.043,0.0,31,,0.09,-0.11,1.02,-1,0,0,1.03,1.11,93,7103,21.2,5.14,,11.89,0.911,107.8,,65.9,5,,,,,,,,,,,,0,0,0,0,0,0,0,0,0,0,0,0,0,0,0,0,,,,,,0.0,,,,,,,,,,,,,,,
848502,1745295082624,0.0433,,,,,,,,,,,,,,,,,,,,,,,2,16,2,2,0.0,213.0,0.0,0.0,2.26,,,0,0,0,0,0,0,0,0,0,0,0,0,0,0,0,0,,0,,,,,38.985779,-76.950722,4.39,46.3,34,3,0.8,0,0.0,-1,0.0,,0,0.0002,0.0433
848522,1745295082644,0.0436,0.0,17,,0.1,-0.11,1.0,-3,0,1,1.01,1.11,91,7364,20.9,5.35,,11.75,0.861,107.8,,63.5,5,,,,,,,,,,,,0,0,0,0,0,0,0,0,0,0,0,0,0,0,0,0,,,,,,0.0,,,,,,,,,,,,,,,
848542,1745295082664,0.044,,,,,,,,,,,,,,,,,,,,,,,,,,,,,,,,,,0,0,0,0,0,0,0,0,0,0,0,0,0,0,0,0,,,,,,,,,,,,,,,,,,,,,
848562,1745295082684,0.0443,0.0,11,,0.11,-0.11,0.97,-5,0,1,0.98,1.11,88,7465,20.4,5.46,,11.75,0.861,107.8,,63.5,5,,,,,,,,,,,,0,0,0,0,0,0,0,0,0,0,0,0,0,0,0,0,,,,,,0.0,,,,,,,,,,,,,,,
848582,1745295082703,0.0446,,,,,,,,,,,,,,,,,,,,,,,,,,,,,,,,,,0,0,0,0,0,0,0,0,0,0,0,0,0,0,0,0,,,,,,,,,,,,,,,,,,,,,
848602,1745295082723,0.045,0.0,11,,0.14,0.04,0.93,-7,0,2,0.94,1.11,84,7465,20.4,5.46,,11.46,0.774,107.8,,64.5,5,3,16,3,3,0.0,10.0,0.0,0.0,2.26,,,0,0,0,0,0,0,0,0,0,0,0,0,0,0,0,0,,0,,,,0.0,38.985779,-76.950722,5.32,46.2,34,3,0.8,0,0.0,-1,0.0,0.0,0,0.0002,0.045
848622,1745295082743,0.0453,,,,,,,,,,,,,,,,,,,,,,,,,,,,,,,,,,0,0,0,0,0,0,0,0,0,0,0,0,0,0,0,0,,,,,,,,,,,,,,,,,,,,,
848642,1745295082763,0.0457,0.0,17,,0.14,0.01,0.91,-7,0,2,0.92,1.11,82,7486,20.0,5.53,,11.28,0.737,107.8,,64.5,5,,,,,,,,,,,,0,0,0,0,0,0,0,0,0,0,0,0,0,0,0,0,,,,,,0.0,,,,,,,,,,,,,,,
848662,1745295082783,0.046,,,,,,,,,,,,,,,,,,,,,,,,,,,,,,,,,,0,0,0,0,0,0,0,0,0,0,0,0,0,0,0,0,,,,,,,,,,,,,,,,,,,,,
848682,1745295082803,0.0463,0.0,65,,0.16,0.11,0.91,-8,0,2,0.93,1.11,84,7450,19.9,5.5,,11.29,0.723,107.8,,64.5,5,,,,,,,,,,,,0,0,0,0,0,0,0,0,0,0,0,0,0,0,0,0,,,,,,0.0,,,,,,,,,,,,,,,
848702,1745295082823,0.0466,,,,,,,,,,,,,,,,,,,,,,,4,16,4,4,0.0,58.0,0.0,0.0,2.26,,,0,0,0,0,0,0,0,0,0,0,0,0,0,0,0,0,,0,,,,,38.985779,-76.950729,6.33,46.2,34,3,0.8,0,0.0,-1,0.0,,0,0.0003,0.0466
848722,1745295082843,0.047,0.0,22,,0.17,0.14,0.93,-6,-0,2,0.96,1.11,86,7292,19.8,5.42,,11.34,0.711,107.8,,62.5,5,,,,,,,,,,,,0,0,0,0,0,0,0,0,0,0,0,0,0,0,0,0,,,,,,0.0,,,,,,,,,,,,,,,
848742,1745295082863,0.0473,,,,,,,,,,,,,,,,,,,,,,,,,,,,,,,,,,0,0,0,0,0,0,0,0,0,0,0,0,0,0,0,0,,,,,,,,,,,,,,,,,,,,,
848762,1745295082883,0.0476,0.0,14,,0.17,0.08,0.93,-5,-0,1,0.95,1.11,85,7157,19.8,5.33,,11.34,0.711,107.8,,62.5,5,,,,,,,,,,,,0,0,0,0,0,0,0,0,0,0,0,0,0,0,0,0,,,,,,0.0,,,,,,,,,,,,,,,
848782,1745295082903,0.048,,,,,,,,,,,,,,,,,,,,,,,,,,,,,,,,,,0,0,0,0,0,0,0,0,0,0,0,0,0,0,0,0,,,,,,,,,,,,,,,,,,,,,
848802,1745295082923,0.0483,0.0,17,,0.19,0.13,0.96,-4,0,1,0.99,1.11,89,7157,19.8,5.33,,11.38,0.708,107.8,,60.5,5,5,16,4,4,0.0,97.0,0.0,0.0,2.25,,,0,0,0,0,0,0,0,0,0,0,0,0,0,0,0,0,,0,,,,0.0,38.985779,-76.950729,7.41,46.2,34,3,0.8,0,0.0,-1,0.0,0.0,0,0.0005,0.0483
848822,1745295082943,0.0486,,,,,,,,,,,,,,,,,,,,,,,,,,,,,,,,,,0,0,0,0,0,0,0,0,0,0,0,0,0,0,0,0,,,,,,,,,,,,,,,,,,,,,
848842,1745295082963,0.049,0.0,28,,0.2,0.13,0.96,-4,0,1,0.99,1.11,89,6941,19.9,5.17,,11.52,0.703,107.8,,60.5,5,,,,,,,,,,,,0,0,0,0,0,0,0,0,0,0,0,0,0,0,0,0,,,,,,0.0,,,,,,,,,,,,,,,
848862,1745295082983,0.0493,,,,,,,,,,,,,,,,,,,,,,,,,,,,,,,,,,0,0,0,0,0,0,0,0,0,0,0,0,0,0,0,0,,,,,,,,,,,,,,,,,,,,,
848882,1745295083003,0.0496,0.0,22,,0.21,0.08,0.94,-3,0,1,0.96,1.11,87,6722,19.7,4.97,,11.5,0.705,107.8,,60.5,5,,,,,,,,,,,,0,0,0,0,0,0,0,0,0,0,0,0,0,0,0,0,,,,,,0.0,,,,,,,,,,,,,,,
848902,1745295083015,0.05,,,,,,,,,,,,,,,,,,,,,,,5,16,5,5,0.0,159.0,0.0,0.0,2.25,,,0,0,0,0,0,0,0,0,0,0,0,0,0,0,0,0,,0,,,,,38.985779,-76.950737,9.2,46.2,34,3,0.8,0,0.0,-1,0.0,,0,0.0006,0.05
848922,1745295083035,0.0503,0.0,17,,0.21,0.05,0.95,-4,0,1,0.98,1.11,88,6375,19.1,4.62,,11.64,0.716,107.8,,56.3,5,,,,,,,,,,,,0,0,0,0,0,0,0,0,0,0,0,0,0,0,0,0,,,,,,0.0,,,,,,,,,,,,,,,
848942,1745295083055,0.0506,,,,,,,,,,,,,,,,,,,,,,,,,,,,,,,,,,0,0,0,0,0,0,0,0,0,0,0,0,0,0,0,0,,,,,,,,,,,,,,,,,,,,,
848962,1745295083075,0.051,0.0,22,,0.21,-0.1,0.91,-3,0,1,0.94,1.11,85,6078,18.8,4.27,,11.64,0.716,107.8,,56.3,5,,,,,,,,,,,,0,0,0,0,0,0,0,0,0,0,0,0,0,0,0,0,,,,,,0.0,,,,,,,,,,,,,,,
848982,1745295083103,0.0513,,,,,,,,,,,,,,,,,,,,,,,,,,,,,,,,,,0,0,0,0,0,0,0,0,0,0,0,0,0,0,0,0,,,,,,,,,,,,,,,,,,,,,
849002,1745295083123,0.0516,0.0,20,,0.2,-0.17,0.92,-3,0,1,0.96,1.11,86,6078,18.8,4.27,,11.8,0.735,107.8,,54.3,5,6,16,6,7,0.0,233.0,0.0,0.0,2.25,,,0,0,0,0,0,0,0,0,0,0,0,0,0,0,0,0,,0,,,,0.0,38.985779,-76.950737,10.63,46.2,34,3,0.8,0,0.0,-1,0.0,0.0,0,0.0008,0.0516
849022,1745295083143,0.052,,,,,,,,,,,,,,,,,,,,,,,,,,,,,,,,,,0,0,0,0,0,0,0,0,0,0,0,0,0,0,0,0,,,,,,,,,,,,,,,,,,,,,
849042,1745295083163,0.0523,0.0,20,,0.25,-0.09,0.97,-3,0,1,1.01,1.11,91,5501,18.4,3.89,,12.23,0.759,107.8,,54.3,5,,,,,,,,,,,,0,0,0,0,0,0,0,0,0,0,0,0,0,0,0,0,,,,,,0.0,,,,,,,,,,,,,,,
849062,1745295083183,0.0526,,,,,,,,,,,,,,,,,,,,,,,,,,,,,,,,,,0,0,0,0,0,0,0,0,0,0,0,0,0,0,0,0,,,,,,,,,,,,,,,,,,,,,
849082,1745295083203,0.053,0.0,31,,0.22,-0.17,0.93,-2,0,0,0.97,1.11,87,4884,18.4,3.51,,12.76,0.785,107.8,,54.3,5,,,,,,,,,,,,0,0,0,0,0,0,0,0,0,0,0,0,0,0,0,0,,,,,,0.0,,,,,,,,,,,,,,,
849102,1745295083223,0.0533,,,,,,,,,,,,,,,,,,,,,,,7,16,7,7,0.0,34.0,0.0,0.0,2.26,,,0,0,0,0,0,0,0,0,0,0,0,0,0,0,0,0,,0,,,,,38.985779,-76.950737,12.67,46.2,34,3,0.8,0,0.0,-1,0.0,,0,0.0009,0.0533
849122,1745295083243,0.0536,0.0,22,,0.23,-0.11,0.95,-2,0,1,0.98,1.11,88,4216,18.4,3.88,,12.76,0.785,107.8,,48.5,5,,,,,,,,,,,,0,0,0,0,0,0,0,0,0,0,0,0,0,0,0,0,,,,,,0.0,,,,,,,,,,,,,,,
849142,1745295083263,0.054,,,,,,,,,,,,,,,,,,,,,,,,,,,,,,,,,,0,0,0,0,0,0,0,0,0,0,0,0,0,0,0,0,,,,,,,,,,,,,,,,,,,,,
849162,1745295083283,0.0543,0.0,25,,0.24,-0.11,0.94,-2,0,0,0.98,1.11,88,3610,18.4,4.29,,13.24,0.838,107.8,,48.5,5,,,,,,,,,,,,0,0,0,0,0,0,0,0,0,0,0,0,0,0,0,0,,,,,,0.0,,,,,,,,,,,,,,,
849182,1745295083303,0.0546,,,,,,,,,,,,,,,,,,,,,,,,,,,,,,,,,,0,0,0,0,0,0,0,0,0,0,0,0,0,0,0,0,,,,,,,,,,,,,,,,,,,,,
849202,1745295083323,0.055,0.0,11,,0.23,-0.18,1.0,-1,0,-0,1.05,1.11,94,3610,18.4,4.29,,13.59,0.821,107.8,,33.0,5,8,16,8,8,0.0,131.0,0.0,0.0,2.25,,,0,0,0,0,0,0,0,0,0,0,0,0,0,0,0,0,,0,,,,0.0,38.985779,-76.950737,13.77,46.2,34,3,0.8,0,0.0,-1,0.0,0.0,0,0.0012,0.055
849222,1745295083343,0.0553,,,,,,,,,,,,,,,,,,,,,,,,,,,,,,,,,,0,0,0,0,0,0,0,0,0,0,0,0,0,0,0,0,,,,,,,,,,,,,,,,,,,,,
849242,1745295083363,0.0556,0.0,14,,0.22,-0.17,1.02,-1,0,-0,1.05,1.11,95,3124,18.3,4.67,,13.94,0.821,107.8,,33.0,5,,,,,,,,,,,,0,0,0,0,0,0,0,0,0,0,0,0,0,0,0,0,,,,,,0.0,,,,,,,,,,,,,,,
849262,1745295083383,0.056,,,,,,,,,,,,,,,,,,,,,,,,,,,,,,,,,,0,0,0,0,0,0,0,0,0,0,0,0,0,0,0,0,,,,,,,,,,,,,,,,,,,,,
849282,1745295083403,0.0563,0.0,11,,0.18,-0.16,1.01,-0,0,-0,1.04,1.11,93,2319,18.4,4.85,,14.22,0.859,107.8,,33.0,5,,,,,,,,,,,,0,0,0,0,0,0,0,0,0,0,0,0,0,0,0,0,,,,,,0.0,,,,,,,,,,,,,,,
849302,1745295083423,0.0566,,,,,,,,,,,,,,,,,,,,,,,9,16,9,9,0.0,140.0,0.0,0.0,2.26,,,0,0,0,0,0,0,0,0,0,0,0,0,0,0,0,0,,0,,,,,38.985779,-76.950745,15.64,46.2,34,3,0.8,0,0.0,-1,0.0,,0,0.0014,0.0566
849322,1745295083443,0.057,0.0,5,,0.15,-0.16,1.01,-0,-0,-0,1.03,1.11,93,1922,18.6,4.74,,14.31,0.894,107.8,,22.4,5,,,,,,,,,,,,0,0,0,0,0,0,0,0,0,0,0,0,0,0,0,0,,,,,,0.0,,,,,,,,,,,,,,,
849342,1745295083463,0.0573,,,,,,,,,,,,,,,,,,,,,,,,,,,,,,,,,,0,0,0,0,0,0,0,0,0,0,0,0,0,0,0,0,,,,,,,,,,,,,,,,,,,,,
849362,1745295083483,0.0576,0.0,14,,0.12,-0.15,0.99,-0,-0,-0,1.01,1.11,90,2030,18.8,4.64,,14.31,0.894,107.8,,22.4,5,,,,,,,,,,,,0,0,0,0,0,0,0,0,0,0,0,0,0,0,0,0,,,,,,0.0,,,,,,,,,,,,,,,
849382,1745295083503,0.058,,,,,,,,,,,,,,,,,,,,,,,,,,,,,,,,,,0,0,0,0,0,0,0,0,0,0,0,0,0,0,0,0,,,,,,,,,,,,,,,,,,,,,
849402,1745295083523,0.0583,0.0,8,13.7,0.09,-0.13,0.97,0,0,-0,0.98,1.11,88,2030,18.8,4.64,15,14.3,0.902,107.8,178,19.3,5,10,16,10,10,0.0,135.0,0.0,0.0,2.25,0,1.0,0,0,0,0,0,0,0,0,0,0,0,0,0,0,0,0,0,3,1.0,0,0,0.0,38.985779,-76.950752,15.94,46.2,34,3,0.8,0,0.0,-1,0.0,0.0,0,0.0017,0.0583
849422,1745295083543,0.0586,,,,,,,,,,,,,,,,,,,,,,,,,,,,,,,,,,0,0,0,0,0,0,0,0,0,0,0,0,0,0,0,0,,,,,,,,,,,,,,,,,,,,,
849442,1745295083563,0.059,0.0,11,,0.06,-0.12,0.98,0,0,-0,0.99,1.11,89,2073,18.8,4.65,,14.24,0.911,107.8,,19.3,5,,,,,,,,,,,,0,0,0,0,0,0,0,0,0,0,0,0,0,0,0,0,,,,,,0.0,,,,,,,,,,,,,,,
849462,1745295083583,0.0593,,,,,,,,,,,,,,,,,,,,,,,,,,,,,,,,,,0,0,0,0,0,0,0,0,0,0,0,0,0,0,0,0,,,,,,,,,,,,,,,,,,,,,
849482,1745295083605,0.0596,0.0,8,,0.04,-0.13,1.02,0,0,0,1.03,1.11,92,2387,18.9,4.74,,14.19,0.924,107.8,,19.3,5,,,,,,,,,,,,0,0,0,0,0,0,0,0,0,0,0,0,0,0,0,0,,,,,,0.0,,,,,,,,,,,,,,,
849502,1745295083625,0.06,,,,,,,,,,,,,,,,,,,,,,,10,16,10,10,0.0,249.0,0.0,0.0,2.26,,,0,0,0,0,0,0,0,0,0,0,0,0,0,0,0,0,,2,,,,,38.985779,-76.95076,14.87,46.2,34,3,0.8,0,0.0,-1,0.0,,0,0.002,0.06
849522,1745295083645,0.0603,0.0,-0,,0.02,-0.13,0.99,1,0,-0,1.0,1.11,89,2551,18.8,4.83,,14.15,0.951,107.8,,21.5,5,,,,,,,,,,,,0,0,0,0,0,0,0,0,0,0,0,0,0,0,0,0,,,,,,0.0,,,,,,,,,,,,,,,
849542,1745295083665,0.0606,,,,,,,,,,,,,,,,,,,,,,,,,,,,,,,,,,0,0,0,0,0,0,0,0,0,0,0,0,0,0,0,0,,,,,,,,,,,,,,,,,,,,,
849562,1745295083685,0.061,0.0,5,,0.0,-0.13,1.01,1,0,-0,1.02,1.11,92,2677,18.7,4.87,,14.15,0.951,107.8,,21.5,5,,,,,,,,,,,,0,0,0,0,0,0,0,0,0,0,0,0,0,0,0,0,,,,,,0.0,,,,,,,,,,,,,,,
849582,1745295083704,0.0613,,,,,,,,,,,,,,,,,,,,,,,,,,,,,,,,,,0,0,0,0,0,0,0,0,0,0,0,0,0,0,0,0,,,,,,,,,,,,,,,,,,,,,
849602,1745295083724,0.0616,0.0,-4,,0.04,-0.12,1.01,1,0,-0,1.02,1.11,91,2677,18.7,4.87,,14.15,0.965,107.8,,24.5,5,9,0,9,9,0.0,0.0,0.0,0.0,2.25,,,0,0,0,0,0,0,0,0,0,0,0,0,0,0,0,0,,0,,,,0.0,38.985779,-76.95076,14.88,46.2,34,3,0.8,0,0.0,-1,0.0,0.0,0,0.0022,0.0616
849622,1745295083744,0.062,,,,,,,,,,,,,,,,,,,,,,,,,,,,,,,,,,0,0,0,0,0,0,0,0,0,0,0,0,0,0,0,0,,,,,,,,,,,,,,,,,,,,,
849642,1745295083764,0.0623,0.0,14,,0.05,-0.09,1.02,1,0,-0,1.02,1.11,92,2668,18.7,4.94,,14.19,0.973,107.8,,24.5,5,,,,,,,,,,,,0,0,0,0,0,0,0,0,0,0,0,0,0,0,0,0,,,,,,0.0,,,,,,,,,,,,,,,
849662,1745295083784,0.0626,,,,,,,,,,,,,,,,,,,,,,,,,,,,,,,,,,0,0,0,0,0,0,0,0,0,0,0,0,0,0,0,0,,,,,,,,,,,,,,,,,,,,,
849682,1745295083804,0.063,0.0,8,,0.03,-0.08,1.01,1,-0,-0,1.01,1.11,91,2003,18.6,4.79,,14.35,0.984,107.8,,24.5,5,,,,,,,,,,,,0,0,0,0,0,0,0,0,0,0,0,0,0,0,0,0,,,,,,0.0,,,,,,,,,,,,,,,
849702,1745295083824,0.0633,,,,,,,,,,,,,,,,,,,,,,,9,0,10,10,0.0,250.0,0.0,0.0,2.26,,,0,0,0,0,0,0,0,0,0,0,0,0,0,0,0,0,,3,,,,,38.985779,-76.950768,15.26,46.2,34,3,0.8,0,0.0,-1,0.0,,0,0.0025,0.0633
849722,1745295083844,0.0636,0.0,5,,0.04,-0.09,1.01,2,-1,-0,1.02,1.11,91,2143,18.6,4.68,,14.24,0.992,107.8,,20.2,5,,,,,,,,,,,,0,0,0,0,0,0,0,0,0,0,0,0,0,0,0,0,,,,,,0.0,,,,,,,,,,,,,,,
849742,1745295083864,0.064,,,,,,,,,,,,,,,,,,,,,,,,,,,,,,,,,,0,0,0,0,0,0,0,0,0,0,0,0,0,0,0,0,,,,,,,,,,,,,,,,,,,,,
849762,1745295083884,0.0643,0.0,5,,0.01,-0.07,1.02,2,-1,-0,1.02,1.11,91,2280,18.7,4.71,,14.24,0.992,107.8,,20.2,5,,,,,,,,,,,,0,0,0,0,0,0,0,0,0,0,0,0,0,0,0,0,,,,,,0.0,,,,,,,,,,,,,,,
849782,1745295083904,0.0646,,,,,,,,,,,,,,,,,,,,,,,,,,,,,,,,,,0,0,0,0,0,0,0,0,0,0,0,0,0,0,0,0,,,,,,,,,,,,,,,,,,,,,
849802,1745295083924,0.065,0.0,5,,-0.0,-0.08,1.01,2,-1,-0,1.02,1.11,91,2280,18.7,4.71,,14.23,1.009,107.8,,20.8,5,10,0,10,10,0.0,236.0,0.0,0.0,2.26,,,0,0,0,0,0,0,0,0,0,0,0,0,0,0,0,0,,2,,,,0.0,38.985779,-76.950775,15.72,46.2,34,3,0.8,0,0.0,-1,0.0,0.0,0,0.0027,0.065
849822,1745295083944,0.0653,,,,,,,,,,,,,,,,,,,,,,,,,,,,,,,,,,0,0,0,0,0,0,0,0,0,0,0,0,0,0,0,0,,,,,,,,,,,,,,,,,,,,,
849842,1745295083964,0.0656,0.0,8,,0.0,-0.04,1.04,2,-1,-0,1.04,1.11,94,2410,18.8,4.78,,14.19,1.029,107.8,,20.8,5,,,,,,,,,,,,0,0,0,0,0,0,0,0,0,0,0,0,0,0,0,0,,,,,,0.0,,,,,,,,,,,,,,,
849862,1745295083984,0.066,,,,,,,,,,,,,,,,,,,,,,,,,,,,,,,,,,0,0,0,0,0,0,0,0,0,0,0,0,0,0,0,0,,,,,,,,,,,,,,,,,,,,,
849882,1745295084004,0.0663,0.0,8,,0.0,-0.04,1.02,3,-1,-0,1.02,1.11,92,2553,18.8,4.83,,14.16,1.004,107.8,,20.8,5,,,,,,,,,,,,0,0,0,0,0,0,0,0,0,0,0,0,0,0,0,0,,,,,,0.0,,,,,,,,,,,,,,,
849902,1745295084014,0.0667,,,,,,,,,,,,,,,,,,,,,,,10,0,10,10,0.0,250.0,0.0,0.0,2.25,,,0,0,0,0,0,0,0,0,0,0,0,0,0,0,0,0,,0,,,,,38.985775,-76.950775,15.56,46.2,34,3,0.8,0,0.0,-1,0.0,,0,0.003,0.0667
849922,1745295084034,0.067,0.0,-0,,0.04,-0.06,1.03,3,-1,-0,1.03,1.11,92,2605,18.9,4.87,,14.2,0.992,107.8,,23.1,5,,,,,,,,,,,,0,0,0,0,0,0,0,0,0,0,0,0,0,0,0,0,,,,,,0.0,,,,,,,,,,,,,,,
849942,1745295084054,0.0673,,,,,,,,,,,,,,,,,,,,,,,,,,,,,,,,,,0,0,0,0,0,0,0,0,0,0,0,0,0,0,0,0,,,,,,,,,,,,,,,,,,,,,
849962,1745295084074,0.0676,0.0,8,,0.03,-0.03,1.02,3,-1,0,1.02,1.11,92,2269,18.9,4.84,,14.2,0.992,107.8,,23.1,5,,,,,,,,,,,,0,0,0,0,0,0,0,0,0,0,0,0,0,0,0,0,,,,,,0.0,,,,,,,,,,,,,,,
849982,1745295084094,0.068,,,,,,,,,,,,,,,,,,,,,,,,,,,,,,,,,,0,0,0,0,0,0,0,0,0,0,0,0,0,0,0,0,,,,,,,,,,,,,,,,,,,,,
850002,1745295084114,0.0683,0.0,3,,0.03,-0.06,1.0,4,-1,-0,1.01,1.11,90,2269,18.9,4.84,,14.28,0.978,107.8,,21.6,5,9,0,10,10,0.0,250.0,0.0,0.0,2.25,,,0,0,0,0,0,0,0,0,0,0,0,0,0,0,0,0,,0,,,,0.0,38.985775,-76.950775,15.46,46.2,34,3,0.8,0,0.0,-1,0.0,0.0,0,0.0033,0.0683
850022,1745295084134,0.0686,,,,,,,,,,,,,,,,,,,,,,,,,,,,,,,,,,0,0,0,0,0,0,0,0,0,0,0,0,0,0,0,0,,,,,,,,,,,,,,,,,,,,,
850042,1745295084154,0.069,0.0,14,,0.03,-0.05,1.0,4,-1,-0,1.0,1.11,90,2270,18.9,4.75,,14.26,0.983,106.0,,21.6,5,,,,,,,,,,,,0,0,0,0,0,0,0,0,0,0,0,0,0,0,0,0,,,,,,0.0,,,,,,,,,,,,,,,
850062,1745295084174,0.0693,,,,,,,,,,,,,,,,,,,,,,,,,,,,,,,,,,0,0,0,0,0,0,0,0,0,0,0,0,0,0,0,0,,,,,,,,,,,,,,,,,,,,,
850082,1745295084194,0.0696,0.0,11,,0.01,-0.01,1.0,4,-1,-0,1.0,1.11,89,2343,18.8,4.76,,14.23,0.998,106.0,,21.6,5,,,,,,,,,,,,0,0,0,0,0,0,0,0,0,0,0,0,0,0,0,0,,,,,,0.0,,,,,,,,,,,,,,,
850102,1745295084220,0.07,,,,,,,,,,,,,,,,,,,,,,,10,0,10,10,0.0,13.0,0.0,0.0,2.26,,,0,0,0,0,0,0,0,0,0,0,0,0,0,0,0,0,,0,,,,,38.985775,-76.950783,16.04,46.2,34,3,0.8,0,0.0,-1,0.0,,0,0.0036,0.07
850122,1745295084240,0.0703,0.0,11,,0.01,0.0,0.98,5,-1,0,0.98,1.11,88,2423,18.8,4.8,,14.2,1.016,106.0,,21.8,5,,,,,,,,,,,,0,0,0,0,0,0,0,0,0,0,0,0,0,0,0,0,,,,,,0.0,,,,,,,,,,,,,,,
850142,1745295084260,0.0706,,,,,,,,,,,,,,,,,,,,,,,,,,,,,,,,,,0,0,0,0,0,0,0,0,0,0,0,0,0,0,0,0,,,,,,,,,,,,,,,,,,,,,
850162,1745295084280,0.071,0.0,11,,-0.01,0.04,0.98,5,-1,-0,0.98,1.11,88,2483,18.7,4.83,,14.2,1.016,106.0,,21.8,5,,,,,,,,,,,,0,0,0,0,0,0,0,0,0,0,0,0,0,0,0,0,,,,,,0.0,,,,,,,,,,,,,,,
850182,1745295084302,0.0713,,,,,,,,,,,,,,,,,,,,,,,,,,,,,,,,,,0,0,0,0,0,0,0,0,0,0,0,0,0,0,0,0,,,,,,,,,,,,,,,,,,,,,
850202,1745295084322,0.0716,0.0,5,,-0.0,0.07,0.98,6,-1,0,0.98,1.11,88,2483,18.7,4.83,,14.23,1.004,106.0,,22.7,5,10,0,10,10,0.0,26.0,0.0,0.0,2.26,,,0,0,0,0,0,0,0,0,0,0,0,0,0,0,0,0,,2,,,,0.0,38.985775,-76.95079,15.79,46.2,34,3,0.8,0,0.0,-1,0.0,0.0,0,0.0038,0.0716
850222,1745295084342,0.072,,,,,,,,,,,,,,,,,,,,,,,,,,,,,,,,,,0,0,0,0,0,0,0,0,0,0,0,0,0,0,0,0,,,,,,,,,,,,,,,,,,,,,
850242,1745295084362,0.0723,0.0,14,,0.02,0.06,0.98,7,-0,-0,0.98,1.11,88,2469,18.8,4.84,,14.28,0.988,106.0,,22.7,5,,,,,,,,,,,,0,0,0,0,0,0,0,0,0,0,0,0,0,0,0,0,,,,,,0.0,,,,,,,,,,,,,,,
850262,1745295084382,0.0726,,,,,,,,,,,,,,,,,,,,,,,,,,,,,,,,,,0,0,0,0,0,0,0,0,0,0,0,0,0,0,0,0,,,,,,,,,,,,,,,,,,,,,
850282,1745295084404,0.073,0.0,20,,0.02,0.1,1.01,7,-0,-0,1.01,1.11,91,2398,18.7,4.82,,14.27,0.983,106.0,,22.7,5,,,,,,,,,,,,0,0,0,0,0,0,0,0,0,0,0,0,0,0,0,0,,,,,,0.0,,,,,,,,,,,,,,,
850302,1745295084424,0.0733,,,,,,,,,,,,,,,,,,,,,,,10,0,10,10,0.0,26.0,0.0,0.0,2.25,,,0,0,0,0,0,0,0,0,0,0,0,0,0,0,0,0,,2,,,,,38.985775,-76.950798,15.98,46.2,34,3,0.8,0,0.0,-1,0.0,,0,0.0041,0.0733
850322,1745295084444,0.0736,0.0,17,,0.02,0.07,1.03,8,-1,-0,1.03,1.11,92,2402,18.8,4.81,,14.28,0.991,106.0,,22.6,5,,,,,,,,,,,,0,0,0,0,0,0,0,0,0,0,0,0,0,0,0,0,,,,,,0.0,,,,,,,,,,,,,,,
850342,1745295084464,0.074,,,,,,,,,,,,,,,,,,,,,,,,,,,,,,,,,,0,0,0,0,0,0,0,0,0,0,0,0,0,0,0,0,,,,,,,,,,,,,,,,,,,,,
850362,1745295084484,0.0743,0.0,14,,0.0,0.06,1.01,9,-1,-1,1.01,1.11,91,2380,18.9,4.79,,14.28,0.991,106.0,,22.6,5,,,,,,,,,,,,0,0,0,0,0,0,0,0,0,0,0,0,0,0,0,0,,,,,,0.0,,,,,,,,,,,,,,,
850382,1745295084502,0.0746,,,,,,,,,,,,,,,,,,,,,,,,,,,,,,,,,,0,0,0,0,0,0,0,0,0,0,0,0,0,0,0,0,,,,,,,,,,,,,,,,,,,,,
850402,1745295084522,0.075,0.0,8,13.74,0.01,0.03,0.99,10,-1,-0,0.99,1.11,89,2380,18.9,4.79,15,14.26,1.008,106.0,178,22.5,5,10,0,11,10,0.0,250.0,0.0,0.0,2.26,0,1.0,0,0,0,0,0,0,0,0,0,0,0,0,0,0,0,0,0,2,1.0,0,0,0.0,38.985775,-76.950806,16.27,46.2,34,3,0.8,0,0.0,-1,0.0,0.0,0,0.0044,0.075
850422,1745295084542,0.0753,,,,,,,,,,,,,,,,,,,,,,,,,,,,,,,,,,0,0,0,0,0,0,0,0,0,0,0,0,0,0,0,0,,,,,,,,,,,,,,,,,,,,,
850442,1745295084562,0.0756,0.0,14,,0.0,0.06,1.01,10,-1,-0,1.01,1.11,91,2460,19.0,4.82,,14.22,1.014,106.0,,22.5,5,,,,,,,,,,,,0,0,0,0,0,0,0,0,0,0,0,0,0,0,0,0,,,,,,0.0,,,,,,,,,,,,,,,
850462,1745295084582,0.076,,,,,,,,,,,,,,,,,,,,,,,,,,,,,,,,,,0,0,0,0,0,0,0,0,0,0,0,0,0,0,0,0,,,,,,,,,,,,,,,,,,,,,
850482,1745295084604,0.0763,0.0,8,,-0.01,0.1,1.01,10,-0,-0,1.01,1.11,91,2464,18.9,4.82,,14.24,1.006,106.0,,22.5,5,,,,,,,,,,,,0,0,0,0,0,0,0,0,0,0,0,0,0,0,0,0,,,,,,0.0,,,,,,,,,,,,,,,
850502,1745295084624,0.0766,,,,,,,,,,,,,,,,,,,,,,,11,0,10,10,0.0,19.0,0.0,0.0,2.26,,,0,0,0,0,0,0,0,0,0,0,0,0,0,0,0,0,,2,,,,,38.985775,-76.950806,16.34,46.2,34,3,0.8,0,0.0,-1,0.0,,0,0.0047,0.0766
850522,1745295084644,0.077,0.0,11,,-0.01,0.09,1.01,11,-1,0,1.02,1.11,91,2519,19.0,4.83,,14.23,0.99,106.0,,23.2,5,,,,,,,,,,,,0,0,0,0,0,0,0,0,0,0,0,0,0,0,0,0,,,,,,0.0,,,,,,,,,,,,,,,
850542,1745295084664,0.0773,,,,,,,,,,,,,,,,,,,,,,,,,,,,,,,,,,0,0,0,0,0,0,0,0,0,0,0,0,0,0,0,0,,,,,,,,,,,,,,,,,,,,,
850562,1745295084684,0.0777,0.0,11,,-0.0,0.09,1.04,11,-0,0,1.04,1.11,94,2526,18.9,4.84,,14.23,0.99,106.0,,23.2,5,,,,,,,,,,,,0,0,0,0,0,0,0,0,0,0,0,0,0,0,0,0,,,,,,0.0,,,,,,,,,,,,,,,
850582,1745295084701,0.078,,,,,,,,,,,,,,,,,,,,,,,,,,,,,,,,,,0,0,0,0,0,0,0,0,0,0,0,0,0,0,0,0,,,,,,,,,,,,,,,,,,,,,
850602,1745295084721,0.0783,0.0,-12,,-0.01,0.11,1.02,11,-1,-0,1.03,1.11,92,2526,18.9,4.84,,14.22,0.986,106.0,,24.0,5,11,0,10,10,0.0,214.0,0.0,0.0,2.25,,,0,0,0,0,0,0,0,0,0,0,0,0,0,0,0,0,,2,,,,0.0,38.985775,-76.950813,16.43,46.2,34,3,0.8,0,0.0,-1,0.0,0.0,0,0.0049,0.0783
850622,1745295084741,0.0786,,,,,,,,,,,,,,,,,,,,,,,,,,,,,,,,,,0,0,0,0,0,0,0,0,0,0,0,0,0,0,0,0,,,,,,,,,,,,,,,,,,,,,
850642,1745295084761,0.079,0.0,11,,-0.02,0.15,1.03,12,-1,-0,1.04,1.11,93,2531,18.8,4.81,,14.2,0.979,106.0,,24.0,5,,,,,,,,,,,,0,0,0,0,0,0,0,0,0,0,0,0,0,0,0,0,,,,,,0.0,,,,,,,,,,,,,,,
850662,1745295084781,0.0793,,,,,,,,,,,,,,,,,,,,,,,,,,,,,,,,,,0,0,0,0,0,0,0,0,0,0,0,0,0,0,0,0,,,,,,,,,,,,,,,,,,,,,
850682,1745295084803,0.0796,0.0,8,,-0.01,0.13,1.01,12,-0,-0,1.02,1.11,92,2546,18.8,4.8,,14.2,1.002,106.0,,24.0,5,,,,,,,,,,,,0,0,0,0,0,0,0,0,0,0,0,0,0,0,0,0,,,,,,0.0,,,,,,,,,,,,,,,
850702,1745295084823,0.08,,,,,,,,,,,,,,,,,,,,,,,11,0,11,10,0.0,25.0,0.0,0.0,2.26,,,0,0,0,0,0,0,0,0,0,0,0,0,0,0,0,0,,2,,,,,38.985775,-76.950813,16.69,46.2,34,3,0.8,0,0.0,-1,0.0,,0,0.0052,0.08
850722,1745295084843,0.0803,0.0,5,,-0.01,0.1,1.01,12,-0,-0,1.01,1.11,91,2558,18.8,4.82,,14.18,0.995,106.0,,23.6,5,,,,,,,,,,,,0,0,0,0,0,0,0,0,0,0,0,0,0,0,0,0,,,,,,0.0,,,,,,,,,,,,,,,
850742,1745295084863,0.0806,,,,,,,,,,,,,,,,,,,,,,,,,,,,,,,,,,0,0,0,0,0,0,0,0,0,0,0,0,0,0,0,0,,,,,,,,,,,,,,,,,,,,,
850762,1745295084883,0.081,0.0,5,,0.0,0.07,1.04,13,-0,-1,1.04,1.11,94,2624,18.8,4.82,,14.18,0.995,106.0,,23.6,5,,,,,,,,,,,,0,0,0,0,0,0,0,0,0,0,0,0,0,0,0,0,,,,,,0.0,,,,,,,,,,,,,,,
850782,1745295084903,0.0813,,,,,,,,,,,,,,,,,,,,,,,,,,,,,,,,,,0,0,0,0,0,0,0,0,0,0,0,0,0,0,0,0,,,,,,,,,,,,,,,,,,,,,
850802,1745295084923,0.0816,0.0,-23,,0.0,0.06,0.99,13,-1,-1,1.0,1.11,89,2624,18.8,4.82,,14.15,1.003,106.0,,24.3,5,11,0,11,10,0.0,250.0,0.0,0.0,2.26,,,0,0,0,0,0,0,0,0,0,0,0,0,0,0,0,0,,2,,,,0.0,38.985775,-76.950821,16.67,46.2,34,3,0.8,0,0.0,-1,0.0,0.0,0,0.0055,0.0816
850822,1745295084943,0.082,,,,,,,,,,,,,,,,,,,,,,,,,,,,,,,,,,0,0,0,0,0,0,0,0,0,0,0,0,0,0,0,0,,,,,,,,,,,,,,,,,,,,,
850842,1745295084963,0.0823,0.0,-0,,0.01,0.04,1.03,13,-1,-0,1.03,1.11,92,2654,18.8,4.85,,14.12,0.985,106.0,,24.3,5,,,,,,,,,,,,0,0,0,0,0,0,0,0,0,0,0,0,0,0,0,0,,,,,,0.0,,,,,,,,,,,,,,,
850862,1745295084983,0.0826,,,,,,,,,,,,,,,,,,,,,,,,,,,,,,,,,,0,0,0,0,0,0,0,0,0,0,0,0,0,0,0,0,,,,,,,,,,,,,,,,,,,,,
850882,1745295085003,0.083,0.0,-4,,-0.0,0.07,1.0,13,-1,-0,1.0,1.11,90,2655,18.9,4.85,,14.12,0.983,106.0,,24.3,5,,,,,,,,,,,,0,0,0,0,0,0,0,0,0,0,0,0,0,0,0,0,,,,,,0.0,,,,,,,,,,,,,,,
850902,1745295085015,0.0833,,,,,,,,,,,,,,,,,,,,,,,11,0,11,11,0.0,250.0,0.0,0.0,2.26,,,0,0,0,0,0,0,0,0,0,0,0,0,0,0,0,0,,2,,,,,38.985775,-76.950829,16.99,46.2,34,3,0.8,0,0.0,-1,0.0,,0,0.0058,0.0833
850922,1745295085035,0.0836,0.0,-12,,-0.01,0.07,1.0,13,-1,-0,1.0,1.11,90,2674,19.0,4.84,,14.18,0.994,106.0,,24.2,5,,,,,,,,,,,,0,0,0,0,0,0,0,0,0,0,0,0,0,0,0,0,,,,,,0.0,,,,,,,,,,,,,,,
850942,1745295085055,0.084,,,,,,,,,,,,,,,,,,,,,,,,,,,,,,,,,,0,0,0,0,0,0,0,0,0,0,0,0,0,0,0,0,,,,,,,,,,,,,,,,,,,,,
850962,1745295085075,0.0843,0.0,3,,0.01,0.07,0.98,13,-1,-0,0.99,1.11,89,2739,18.9,4.87,,14.18,0.994,106.0,,24.2,5,,,,,,,,,,,,0,0,0,0,0,0,0,0,0,0,0,0,0,0,0,0,,,,,,0.0,,,,,,,,,,,,,,,
850982,1745295085101,0.0846,,,,,,,,,,,,,,,,,,,,,,,,,,,,,,,,,,0,0,0,0,0,0,0,0,0,0,0,0,0,0,0,0,,,,,,,,,,,,,,,,,,,,,
851002,1745295085121,0.085,0.0,-0,,0.03,0.12,0.99,13,-1,-0,0.99,1.11,89,2739,18.9,4.87,,14.14,0.999,106.0,,25.1,5,11,0,11,10,0.0,36.0,0.0,0.0,2.25,,,0,0,0,0,0,0,0,0,0,0,0,0,0,0,0,0,,0,,,,0.0,38.985775,-76.950836,17.2,46.2,34,3,0.8,0,0.0,-1,0.0,0.0,0,0.0061,0.085
851022,1745295085141,0.0853,,,,,,,,,,,,,,,,,,,,,,,,,,,,,,,,,,0,0,0,0,0,0,0,0,0,0,0,0,0,0,0,0,,,,,,,,,,,,,,,,,,,,,
851042,1745295085161,0.0856,0.0,-8,,0.03,0.11,1.02,13,-2,-0,1.02,1.02,100,2713,19.0,4.95,,14.19,1.04,106.0,,25.1,5,,,,,,,,,,,,0,0,0,0,0,0,0,0,0,0,0,0,0,0,0,0,,,,,,0.0,,,,,,,,,,,,,,,
851062,1745295085181,0.086,,,,,,,,,,,,,,,,,,,,,,,,,,,,,,,,,,0,0,0,0,0,0,0,0,0,0,0,0,0,0,0,0,,,,,,,,,,,,,,,,,,,,,
851082,1745295085201,0.0863,0.0,-0,,0.01,0.14,0.99,13,-2,-0,1.0,1.02,97,2563,19.0,4.92,,14.22,0.979,106.0,,25.1,5,,,,,,,,,,,,0,0,0,0,0,0,0,0,0,0,0,0,0,0,0,0,,,,,,0.0,,,,,,,,,,,,,,,
851102,1745295085221,0.0866,,,,,,,,,,,,,,,,,,,,,,,12,0,12,11,0.0,23.0,0.0,0.0,2.25,,,0,0,0,0,0,0,0,0,0,0,0,0,0,0,0,0,,0,,,,,38.985771,-76.950836,17.91,46.2,34,3,0.8,0,0.0,-1,0.0,,0,0.0064,0.0866
851122,1745295085241,0.087,0.0,-0,,0.02,0.11,1.03,13,-2,-0,1.04,1.04,100,2626,18.5,4.87,,14.18,0.92,106.0,,24.4,5,,,,,,,,,,,,0,0,0,0,0,0,0,0,0,0,0,0,0,0,0,0,,,,,,0.0,,,,,,,,,,,,,,,
851142,1745295085261,0.0873,,,,,,,,,,,,,,,,,,,,,,,,,,,,,,,,,,0,0,0,0,0,0,0,0,0,0,0,0,0,0,0,0,,,,,,,,,,,,,,,,,,,,,
851162,1745295085281,0.0876,0.0,-0,,0.01,0.14,0.99,13,-2,0,1.0,1.04,97,2817,18.8,4.91,,14.18,0.92,106.0,,24.4,5,,,,,,,,,,,,0,0,0,0,0,0,0,0,0,0,0,0,0,0,0,0,,,,,,0.0,,,,,,,,,,,,,,,
851182,1745295085303,0.088,,,,,,,,,,,,,,,,,,,,,,,,,,,,,,,,,,0,0,0,0,0,0,0,0,0,0,0,0,0,0,0,0,,,,,,,,,,,,,,,,,,,,,
851202,1745295085323,0.0883,0.0,-8,,0.03,0.18,0.96,14,-2,0,0.97,1.04,94,2817,18.8,4.91,,14.11,0.91,106.0,,25.9,5,12,0,12,11,0.0,245.0,0.0,0.0,2.26,,,0,0,0,0,0,0,0,0,0,0,0,0,0,0,0,0,,2,,,,0.0,38.985771,-76.950844,18.21,46.2,34,3,0.8,0,0.0,-1,0.0,0.0,0,0.0067,0.0883
851222,1745295085343,0.0887,,,,,,,,,,,,,,,,,,,,,,,,,,,,,,,,,,0,0,0,0,0,0,0,0,0,0,0,0,0,0,0,0,,,,,,,,,,,,,,,,,,,,,
851242,1745295085363,0.089,0.0,-8,,0.01,0.19,0.96,15,-2,-0,0.98,1.04,94,2902,18.9,4.95,,14.06,0.919,106.0,,25.9,5,,,,,,,,,,,,0,0,0,0,0,0,0,0,0,0,0,0,0,0,0,0,,,,,,0.0,,,,,,,,,,,,,,,
851262,1745295085383,0.0893,,,,,,,,,,,,,,,,,,,,,,,,,,,,,,,,,,0,0,0,0,0,0,0,0,0,0,0,0,0,0,0,0,,,,,,,,,,,,,,,,,,,,,
851282,1745295085403,0.0896,0.0,-4,,0.03,0.17,1.01,16,-2,-0,1.03,1.04,99,2887,18.9,4.95,,14.08,0.91,106.0,,25.9,5,,,,,,,,,,,,0,0,0,0,0,0,0,0,0,0,0,0,0,0,0,0,,,,,,0.0,,,,,,,,,,,,,,,
851302,1745295085423,0.09,,,,,,,,,,,,,,,,,,,,,,,12,0,12,11,0.0,251.0,0.0,0.0,2.25,,,0,0,0,0,0,0,0,0,0,0,0,0,0,0,0,0,,0,,,,,38.985767,-76.950851,18.26,46.2,34,3,0.8,0,0.0,-1,0.0,,0,0.007,0.09
851322,1745295085443,0.0903,0.0,22,,0.06,0.15,1.07,17,-1,-0,1.08,1.08,100,2835,18.9,4.98,,14.15,0.956,106.0,,27.0,5,,,,,,,,,,,,0,0,0,0,0,0,0,0,0,0,0,0,0,0,0,0,,,,,,0.0,,,,,,,,,,,,,,,
851342,1745295085463,0.0906,,,,,,,,,,,,,,,,,,,,,,,,,,,,,,,,,,0,0,0,0,0,0,0,0,0,0,0,0,0,0,0,0,,,,,,,,,,,,,,,,,,,,,
851362,1745295085483,0.091,0.0,17,,0.05,0.19,1.06,17,-1,0,1.08,1.08,100,2770,19.0,4.96,,14.15,0.956,106.0,,27.0,5,,,,,,,,,,,,0,0,0,0,0,0,0,0,0,0,0,0,0,0,0,0,,,,,,0.0,,,,,,,,,,,,,,,
851382,1745295085503,0.0913,,,,,,,,,,,,,,,,,,,,,,,,,,,,,,,,,,0,0,0,0,0,0,0,0,0,0,0,0,0,0,0,0,,,,,,,,,,,,,,,,,,,,,
851402,1745295085523,0.0916,0.0,8,13.78,0.08,0.19,1.0,19,-1,0,1.02,1.08,94,2770,19.0,4.96,15,14.15,0.95,106.0,178,26.4,5,13,0,13,12,0.0,225.0,0.0,0.0,2.23,0,1.0,0,0,0,0,0,0,0,0,0,0,0,0,0,0,0,0,0,2,1.0,0,0,0.0,38.985767,-76.950859,18.82,46.2,34,3,0.8,0,0.0,-1,0.0,0.0,0,0.0073,0.0916
851422,1745295085543,0.092,,,,,,,,,,,,,,,,,,,,,,,,,,,,,,,,,,0,0,0,0,0,0,0,0,0,0,0,0,0,0,0,0,,,,,,,,,,,,,,,,,,,,,
851442,1745295085563,0.0923,0.0,-0,,0.1,0.26,0.91,21,-1,-0,0.95,1.08,88,2932,19.1,4.97,,14.1,0.894,106.0,,26.4,5,,,,,,,,,,,,0,0,0,0,0,0,0,0,0,0,0,0,0,0,0,0,,,,,,0.0,,,,,,,,,,,,,,,
851462,1745295085583,0.0926,,,,,,,,,,,,,,,,,,,,,,,,,,,,,,,,,,0,0,0,0,0,0,0,0,0,0,0,0,0,0,0,0,,,,,,,,,,,,,,,,,,,,,
851482,1745295085603,0.093,0.0,5,,0.13,0.42,0.86,23,-1,0,0.97,1.08,90,3110,19.0,5.01,,14.04,0.867,106.0,,26.4,5,,,,,,,,,,,,0,0,0,0,0,0,0,0,0,0,0,0,0,0,0,0,,,,,,0.0,,,,,,,,,,,,,,,
851502,1745295085623,0.0933,,,,,,,,,,,,,,,,,,,,,,,13,0,13,11,0.0,153.0,0.0,0.0,2.23,,,0,0,0,0,0,0,0,0,0,0,0,0,0,0,0,0,,0,,,,,38.985764,-76.950859,19.2,46.2,34,3,0.8,0,0.0,-1,0.0,,0,0.0077,0.0933
851522,1745295085643,0.0936,0.0,-0,,0.15,0.48,0.83,25,-1,-0,0.97,1.08,89,2950,19.0,4.93,,14.1,0.858,106.0,,28.3,5,,,,,,,,,,,,0,0,0,0,0,0,0,0,0,0,0,0,0,0,0,0,,,,,,0.0,,,,,,,,,,,,,,,
851542,1745295085663,0.094,,,,,,,,,,,,,,,,,,,,,,,,,,,,,,,,,,0,0,0,0,0,0,0,0,0,0,0,0,0,0,0,0,,,,,,,,,,,,,,,,,,,,,
851562,1745295085683,0.0943,0.0,11,,0.15,0.49,0.8,27,-1,-0,0.95,1.08,88,2876,19.4,5.04,,14.1,0.858,106.0,,28.3,5,,,,,,,,,,,,0,0,0,0,0,0,0,0,0,0,0,0,0,0,0,0,,,,,,0.0,,,,,,,,,,,,,,,
851582,1745295085702,0.0946,,,,,,,,,,,,,,,,,,,,,,,,,,,,,,,,,,0,0,0,0,0,0,0,0,0,0,0,0,0,0,0,0,,,,,,,,,,,,,,,,,,,,,
851602,1745295085722,0.095,0.0,34,,0.16,0.54,0.75,29,-2,-0,0.94,1.08,87,2876,19.4,5.04,,14.08,0.849,106.0,,28.2,5,14,34,13,12,0.0,237.0,0.0,0.0,2.27,,,0,0,0,0,0,0,0,0,0,0,0,0,0,0,0,0,,2,,,,0.0,38.98576,-76.950867,20.25,46.1,34,3,0.8,0,0.0,-1,0.0,0.0,0,0.008,0.095
851622,1745295085742,0.0953,,,,,,,,,,,,,,,,,,,,,,,,,,,,,,,,,,0,0,0,0,0,0,0,0,0,0,0,0,0,0,0,0,,,,,,,,,,,,,,,,,,,,,
851642,1745295085762,0.0956,0.0,22,,0.18,0.59,0.82,30,-1,1,1.02,1.08,95,3155,19.4,5.0,,14.0,0.864,106.0,,28.2,5,,,,,,,,,,,,0,0,0,0,0,0,0,0,0,0,0,0,0,0,0,0,,,,,,0.0,,,,,,,,,,,,,,,
851662,1745295085782,0.096,,,,,,,,,,,,,,,,,,,,,,,,,,,,,,,,,,0,0,0,0,0,0,0,0,0,0,0,0,0,0,0,0,,,,,,,,,,,,,,,,,,,,,
851682,1745295085802,0.0963,0.0,20,,0.18,0.48,0.95,31,-1,0,1.08,1.08,100,3261,19.5,4.93,,13.98,0.866,106.0,,28.2,5,,,,,,,,,,,,0,0,0,0,0,0,0,0,0,0,0,0,0,0,0,0,,,,,,0.0,,,,,,,,,,,,,,,
851702,1745295085822,0.0966,,,,,,,,,,,,,,,,,,,,,,,14,1,14,12,0.0,9.0,0.0,0.0,2.25,,,0,0,0,0,0,0,0,0,0,0,0,0,0,0,0,0,,0,,,,,38.985756,-76.950874,20.48,46.1,34,3,0.8,0,0.0,-1,0.0,,0,0.0084,0.0966
851722,1745295085842,0.097,0.0,17,,0.14,0.48,0.96,33,-1,-1,1.08,1.08,100,3051,18.9,4.88,,14.04,0.85,106.0,,30.0,5,,,,,,,,,,,,0,0,0,0,0,0,0,0,0,0,0,0,0,0,0,0,,,,,,0.0,,,,,,,,,,,,,,,
851742,1745295085862,0.0973,,,,,,,,,,,,,,,,,,,,,,,,,,,,,,,,,,0,0,0,0,0,0,0,0,0,0,0,0,0,0,0,0,,,,,,,,,,,,,,,,,,,,,
851762,1745295085882,0.0976,0.0,14,,0.13,0.5,0.91,35,-2,-1,1.05,1.08,96,3280,18.9,4.91,,14.04,0.85,106.0,,30.0,5,,,,,,,,,,,,0,0,0,0,0,0,0,0,0,0,0,0,0,0,0,0,,,,,,0.0,,,,,,,,,,,,,,,
851782,1745295085904,0.098,,,,,,,,,,,,,,,,,,,,,,,,,,,,,,,,,,0,0,0,0,0,0,0,0,0,0,0,0,0,0,0,0,,,,,,,,,,,,,,,,,,,,,
851802,1745295085924,0.0983,0.0,8,,0.13,0.52,0.85,36,-2,-1,1.01,1.08,93,3280,18.9,4.91,,13.95,0.847,106.0,,29.9,5,14,1,14,12,0.0,14.0,0.0,0.0,2.24,,,0,0,0,0,0,0,0,0,0,0,0,0,0,0,0,0,,0,,,,0.0,38.985756,-76.950874,21.49,46.1,34,3,0.8,0,0.0,-1,0.0,0.0,0,0.0087,0.0983
851822,1745295085944,0.0986,,,,,,,,,,,,,,,,,,,,,,,,,,,,,,,,,,0,0,0,0,0,0,0,0,0,0,0,0,0,0,0,0,,,,,,,,,,,,,,,,,,,,,
851842,1745295085964,0.099,0.0,45,,0.1,0.51,0.9,36,-2,-0,1.04,1.08,96,3202,18.9,4.88,,13.95,0.856,106.0,,29.9,5,,,,,,,,,,,,0,0,0,0,0,0,0,0,0,0,0,0,0,0,0,0,,,,,,0.0,,,,,,,,,,,,,,,
851862,1745295085984,0.0993,,,,,,,,,,,,,,,,,,,,,,,,,,,,,,,,,,0,0,0,0,0,0,0,0,0,0,0,0,0,0,0,0,,,,,,,,,,,,,,,,,,,,,
851882,1745295086004,0.0996,0.0,17,,0.05,0.37,0.99,37,-1,-1,1.06,1.08,97,3182,19.0,4.83,,13.94,0.891,106.0,,29.9,5,,,,,,,,,,,,0,0,0,0,0,0,0,0,0,0,0,0,0,0,0,0,,,,,,0.0,,,,,,,,,,,,,,,
851902,1745295086016,0.1,,,,,,,,,,,,,,,,,,,,,,,15,4,14,12,0.0,65.0,0.0,0.0,2.24,,,0,0,0,0,0,0,0,0,0,0,0,0,0,0,0,0,,0,,,,,38.985752,-76.950882,21.42,46.1,34,3,0.8,0,0.0,-1,0.0,,0,0.0091,0.1
851922,1745295086036,0.1003,0.0,5,,0.05,0.44,0.92,37,-1,-1,1.03,1.08,95,3302,19.0,4.82,,13.96,0.902,106.0,,30.0,5,,,,,,,,,,,,0,0,0,0,0,0,0,0,0,0,0,0,0,0,0,0,,,,,,0.0,,,,,,,,,,,,,,,
851942,1745295086056,0.1006,,,,,,,,,,,,,,,,,,,,,,,,,,,,,,,,,,0,0,0,0,0,0,0,0,0,0,0,0,0,0,0,0,,,,,,,,,,,,,,,,,,,,,
851962,1745295086076,0.101,0.0,17,,0.07,0.49,0.95,36,-2,-1,1.08,1.08,99,3279,19.0,4.82,,13.96,0.902,106.0,,30.0,5,,,,,,,,,,,,0,0,0,0,0,0,0,0,0,0,0,0,0,0,0,0,,,,,,0.0,,,,,,,,,,,,,,,
851982,1745295086102,0.1013,,,,,,,,,,,,,,,,,,,,,,,,,,,,,,,,,,0,0,0,0,0,0,0,0,0,0,0,0,0,0,0,0,,,,,,,,,,,,,,,,,,,,,
852002,1745295086122,0.1016,0.0,48,,0.03,0.37,1.01,36,-2,-1,1.08,1.08,100,3279,19.0,4.82,,13.94,0.917,106.0,,30.1,5,14,26,14,12,0.0,68.0,0.0,0.0,2.23,,,0,0,0,0,0,0,0,0,0,0,0,0,0,0,0,0,,0,,,,0.0,38.985748,-76.95089,21.61,46.1,34,3,0.8,0,0.0,-1,0.0,0.0,0,0.0095,0.1016
852022,1745295086142,0.102,,,,,,,,,,,,,,,,,,,,,,,,,,,,,,,,,,0,0,0,0,0,0,0,0,0,0,0,0,0,0,0,0,,,,,,,,,,,,,,,,,,,,,
852042,1745295086162,0.1023,0.0,11,,0.05,0.45,0.91,36,-2,-1,1.02,1.08,94,3326,19.0,4.82,,13.98,0.944,104.2,,30.1,5,,,,,,,,,,,,0,0,0,0,0,0,0,0,0,0,0,0,0,0,0,0,,,,,,0.0,,,,,,,,,,,,,,,
852062,1745295086182,0.1026,,,,,,,,,,,,,,,,,,,,,,,,,,,,,,,,,,0,0,0,0,0,0,0,0,0,0,0,0,0,0,0,0,,,,,,,,,,,,,,,,,,,,,
852082,1745295086202,0.103,0.0,14,,0.03,0.37,1.0,35,-2,-1,1.07,1.08,99,3347,19.0,4.73,,13.91,0.996,104.2,,30.1,5,,,,,,,,,,,,0,0,0,0,0,0,0,0,0,0,0,0,0,0,0,0,,,,,,0.0,,,,,,,,,,,,,,,
852102,1745295086222,0.1033,,,,,,,,,,,,,,,,,,,,,,,14,26,14,13,0.0,76.0,0.0,0.0,2.24,,,0,0,0,0,0,0,0,0,0,0,0,0,0,0,0,0,,0,,,,,38.985744,-76.950897,21.93,46.1,34,3,0.8,0,0.0,-1,0.0,,0,0.0098,0.1033
852122,1745295086242,0.1036,0.0,8,,0.04,0.41,0.95,35,-2,-1,1.03,1.08,95,3315,18.9,4.73,,13.96,0.923,104.2,,31.0,5,,,,,,,,,,,,0,0,0,0,0,0,0,0,0,0,0,0,0,0,0,0,,,,,,0.0,,,,,,,,,,,,,,,
852142,1745295086262,0.104,,,,,,,,,,,,,,,,,,,,,,,,,,,,,,,,,,0,0,0,0,0,0,0,0,0,0,0,0,0,0,0,0,,,,,,,,,,,,,,,,,,,,,
852162,1745295086282,0.1043,0.0,20,,0.03,0.34,1.03,34,-2,-1,1.08,1.08,100,3424,18.9,4.69,,13.96,0.923,104.2,,31.0,5,,,,,,,,,,,,0,0,0,0,0,0,0,0,0,0,0,0,0,0,0,0,,,,,,0.0,,,,,,,,,,,,,,,
852182,1745295086304,0.1046,,,,,,,,,,,,,,,,,,,,,,,,,,,,,,,,,,0,0,0,0,0,0,0,0,0,0,0,0,0,0,0,0,,,,,,,,,,,,,,,,,,,,,
852202,1745295086324,0.105,0.0,11,,0.04,0.38,0.97,34,-2,-1,1.04,1.08,96,3424,18.9,4.69,,13.94,0.875,104.2,,31.6,5,15,26,14,13,0.0,76.0,0.0,0.0,2.24,,,0,0,0,0,0,0,0,0,0,0,0,0,0,0,0,0,,2,,,,0.0,38.985737,-76.950897,22.33,46.1,34,3,0.8,0,0.0,-1,0.0,0.0,0,0.0102,0.105
852222,1745295086344,0.1053,,,,,,,,,,,,,,,,,,,,,,,,,,,,,,,,,,0,0,0,0,0,0,0,0,0,0,0,0,0,0,0,0,,,,,,,,,,,,,,,,,,,,,
852242,1745295086364,0.1056,0.0,34,,0.03,0.34,1.04,34,-2,-1,1.1,1.1,100,3356,18.9,4.77,,13.91,0.858,104.2,,31.6,5,,,,,,,,,,,,0,0,0,0,0,0,0,0,0,0,0,0,0,0,0,0,,,,,,0.0,,,,,,,,,,,,,,,
852262,1745295086384,0.106,,,,,,,,,,,,,,,,,,,,,,,,,,,,,,,,,,0,0,0,0,0,0,0,0,0,0,0,0,0,0,0,0,,,,,,,,,,,,,,,,,,,,,
852282,1745295086404,0.1063,0.0,79,,0.01,0.36,0.97,34,-2,-1,1.04,1.1,95,3311,19.2,4.75,,13.92,0.877,104.2,,31.6,5,,,,,,,,,,,,0,0,0,0,0,0,0,0,0,0,0,0,0,0,0,0,,,,,,0.0,,,,,,,,,,,,,,,
852302,1745295086424,0.1066,,,,,,,,,,,,,,,,,,,,,,,15,26,15,13,0.0,97.0,0.0,0.0,2.26,,,0,0,0,0,0,0,0,0,0,0,0,0,0,0,0,0,,2,,,,,38.985733,-76.950897,22.46,46.1,34,3,0.8,0,0.0,-1,0.0,,0,0.0106,0.1066
852322,1745295086444,0.107,0.0,110,,0.03,0.37,1.02,34,-2,-0,1.09,1.1,100,3412,20.2,4.83,,13.92,0.877,104.2,,31.7,5,,,,,,,,,,,,0,0,0,0,0,0,0,0,0,0,0,0,0,0,0,0,,,,,,0.0,,,,,,,,,,,,,,,
852342,1745295086464,0.1073,,,,,,,,,,,,,,,,,,,,,,,,,,,,,,,,,,0,0,0,0,0,0,0,0,0,0,0,0,0,0,0,0,,,,,,,,,,,,,,,,,,,,,
852362,1745295086484,0.1076,0.0,135,,0.0,0.4,0.97,34,-2,-1,1.05,1.1,96,3371,19.6,4.75,,13.92,0.89,104.2,,31.7,5,,,,,,,,,,,,0,0,0,0,0,0,0,0,0,0,0,0,0,0,0,0,,,,,,0.0,,,,,,,,,,,,,,,
852382,1745295086504,0.108,,,,,,,,,,,,,,,,,,,,,,,,,,,,,,,,,,0,0,0,0,0,0,0,0,0,0,0,0,0,0,0,0,,,,,,,,,,,,,,,,,,,,,
852402,1745295086524,0.1083,0.0,68,13.58,0.01,0.37,1.05,34,-2,-0,1.11,1.11,100,3371,19.6,4.75,15,13.9,0.91,104.2,178,33.4,5,15,26,15,13,0.0,92.0,0.0,0.0,2.29,0,1.0,0,0,0,0,0,0,0,0,0,0,0,0,0,0,0,0,0,2,1.0,0,-0,0.0,38.985729,-76.950905,22.81,46.1,34,3,0.8,0,0.0,-1,0.0,0.0,0,0.011,0.1083
852422,1745295086544,0.1086,,,,,,,,,,,,,,,,,,,,,,,,,,,,,,,,,,0,0,0,0,0,0,0,0,0,0,0,0,0,0,0,0,,,,,,,,,,,,,,,,,,,,,
852442,1745295086564,0.109,0.0,102,,0.02,0.39,0.99,35,-2,-1,1.06,1.11,96,3466,19.4,4.71,,13.94,0.943,104.2,,33.4,5,,,,,,,,,,,,0,0,0,0,0,0,0,0,0,0,0,0,0,0,0,0,,,,,,0.0,,,,,,,,,,,,,,,
852462,1745295086584,0.1093,,,,,,,,,,,,,,,,,,,,,,,,,,,,,,,,,,0,0,0,0,0,0,0,0,0,0,0,0,0,0,0,0,,,,,,,,,,,,,,,,,,,,,
852482,1745295086604,0.1096,0.0,99,,-0.01,0.36,1.05,35,-2,-1,1.11,1.11,100,3407,19.4,4.66,,13.92,0.96,104.2,,33.4,5,,,,,,,,,,,,0,0,0,0,0,0,0,0,0,0,0,0,0,0,0,0,,,,,,0.0,,,,,,,,,,,,,,,
852502,1745295086624,0.11,,,,,,,,,,,,,,,,,,,,,,,15,26,15,13,0.0,243.0,0.0,0.0,2.26,,,0,0,0,0,0,0,0,0,0,0,0,0,0,0,0,0,,0,,,,,38.985725,-76.950905,22.58,46.1,34,3,0.8,0,0.0,-1,0.0,,0,0.0114,0.11
852522,1745295086644,0.1103,0.0,133,,0.01,0.49,1.04,35,-3,-1,1.15,1.15,100,3374,20.5,4.69,,13.98,0.965,104.2,,33.5,5,,,,,,,,,,,,0,0,0,0,0,0,0,0,0,0,0,0,0,0,0,0,,,,,,0.0,,,,,,,,,,,,,,,
852542,1745295086664,0.1106,,,,,,,,,,,,,,,,,,,,,,,,,,,,,,,,,,0,0,0,0,0,0,0,0,0,0,0,0,0,0,0,0,,,,,,,,,,,,,,,,,,,,,
852562,1745295086684,0.111,0.0,132,,-0.02,0.37,1.07,36,-3,-1,1.13,1.15,98,3368,19.4,4.77,,13.98,0.965,104.2,,33.5,5,,,,,,,,,,,,0,0,0,0,0,0,0,0,0,0,0,0,0,0,0,0,,,,,,0.0,,,,,,,,,,,,,,,
852582,1745295086703,0.1113,,,,,,,,,,,,,,,,,,,,,,,,,,,,,,,,,,0,0,0,0,0,0,0,0,0,0,0,0,0,0,0,0,,,,,,,,,,,,,,,,,,,,,
852602,1745295086723,0.1116,0.0,62,,0.01,0.5,0.97,37,-3,-1,1.09,1.15,95,3368,19.4,4.77,,13.98,0.951,104.2,,32.3,5,15,0,15,14,0.0,239.0,0.0,0.0,2.25,,,0,0,0,0,0,0,0,0,0,0,0,0,0,0,0,0,,2,,,,0.0,38.985718,-76.950912,22.78,46.1,34,3,0.8,0,0.0,-1,0.0,0.0,0,0.0118,0.1116
852622,1745295086743,0.112,,,,,,,,,,,,,,,,,,,,,,,,,,,,,,,,,,0,0,0,0,0,0,0,0,0,0,0,0,0,0,0,0,,,,,,,,,,,,,,,,,,,,,
852642,1745295086763,0.1123,0.0,135,,-0.01,0.44,1.04,37,-2,-1,1.12,1.15,98,3281,18.9,4.73,,13.96,0.959,104.2,,32.3,5,,,,,,,,,,,,0,0,0,0,0,0,0,0,0,0,0,0,0,0,0,0,,,,,,0.0,,,,,,,,,,,,,,,
852662,1745295086783,0.1126,,,,,,,,,,,,,,,,,,,,,,,,,,,,,,,,,,0,0,0,0,0,0,0,0,0,0,0,0,0,0,0,0,,,,,,,,,,,,,,,,,,,,,
852682,1745295086803,0.113,0.0,56,,-0.0,0.49,0.98,37,-2,-1,1.1,1.15,96,3413,19.2,4.74,,13.96,0.971,104.2,,32.3,5,,,,,,,,,,,,0,0,0,0,0,0,0,0,0,0,0,0,0,0,0,0,,,,,,0.0,,,,,,,,,,,,,,,
852702,1745295086823,0.1133,,,,,,,,,,,,,,,,,,,,,,,15,3,15,14,0.0,234.0,0.0,0.0,2.25,,,0,0,0,0,0,0,0,0,0,0,0,0,0,0,0,0,,2,,,,,38.985714,-76.950912,22.15,46.1,34,3,0.8,0,0.0,-1,0.0,,0,0.0122,0.1133
852722,1745295086843,0.1136,0.0,42,,-0.03,0.44,1.04,38,-1,-1,1.13,1.15,98,3441,18.8,4.7,,13.87,0.963,104.2,,32.1,5,,,,,,,,,,,,0,0,0,0,0,0,0,0,0,0,0,0,0,0,0,0,,,,,,0.0,,,,,,,,,,,,,,,
852742,1745295086863,0.114,,,,,,,,,,,,,,,,,,,,,,,,,,,,,,,,,,0,0,0,0,0,0,0,0,0,0,0,0,0,0,0,0,,,,,,,,,,,,,,,,,,,,,
852762,1745295086883,0.1143,0.0,51,,-0.01,0.59,1.06,37,-1,-0,1.22,1.22,100,3441,18.8,4.7,,13.87,0.963,104.2,,32.1,5,,,,,,,,,,,,0,0,0,0,0,0,0,0,0,0,0,0,0,0,0,0,,,,,,0.0,,,,,,,,,,,,,,,
852782,1745295086903,0.1146,,,,,,,,,,,,,,,,,,,,,,,,,,,,,,,,,,0,0,0,0,0,0,0,0,0,0,0,0,0,0,0,0,,,,,,,,,,,,,,,,,,,,,
852802,1745295086923,0.115,0.0,48,,-0.01,0.55,1.02,38,-1,-1,1.16,1.16,100,3493,18.8,4.69,,13.9,0.962,104.2,,32.9,5,15,3,15,13,0.0,230.0,0.0,0.0,2.24,,,0,0,0,0,0,0,0,0,0,0,0,0,0,0,0,0,,0,,,,0.0,38.98571,-76.950912,22.22,46.1,34,3,0.8,0,0.0,-1,0.0,0.0,0,0.0125,0.115
852822,1745295086943,0.1153,,,,,,,,,,,,,,,,,,,,,,,,,,,,,,,,,,0,0,0,0,0,0,0,0,0,0,0,0,0,0,0,0,,,,,,,,,,,,,,,,,,,,,
852842,1745295086963,0.1156,0.0,28,,-0.02,0.56,1.07,38,-1,-0,1.21,1.21,100,3423,18.9,4.7,,13.86,0.964,104.2,,32.9,5,,,,,,,,,,,,0,0,0,0,0,0,0,0,0,0,0,0,0,0,0,0,,,,,,0.0,,,,,,,,,,,,,,,
852862,1745295086983,0.116,,,,,,,,,,,,,,,,,,,,,,,,,,,,,,,,,,0,0,0,0,0,0,0,0,0,0,0,0,0,0,0,0,,,,,,,,,,,,,,,,,,,,,
852882,1745295087003,0.1163,0.0,34,,-0.02,0.55,1.0,39,-1,-1,1.14,1.21,95,3306,19.0,4.71,,13.92,0.976,104.2,,32.9,5,,,,,,,,,,,,0,0,0,0,0,0,0,0,0,0,0,0,0,0,0,0,,,,,,0.0,,,,,,,,,,,,,,,
852902,1745295087015,0.1166,,,,,,,,,,,,,,,,,,,,,,,16,3,15,13,0.0,248.0,0.0,0.0,2.24,,,0,0,0,0,0,0,0,0,0,0,0,0,0,0,0,0,,2,,,,,38.985702,-76.950912,22.27,46.1,34,3,0.8,0,0.0,-1,0.0,,0,0.0129,0.1166
852922,1745295087035,0.117,0.0,39,,0.0,0.57,1.02,39,-2,-0,1.17,1.21,97,3666,19.0,4.72,,13.94,0.966,104.2,,31.6,5,,,,,,,,,,,,0,0,0,0,0,0,0,0,0,0,0,0,0,0,0,0,,,,,,0.0,,,,,,,,,,,,,,,
852942,1745295087055,0.1173,,,,,,,,,,,,,,,,,,,,,,,,,,,,,,,,,,0,0,0,0,0,0,0,0,0,0,0,0,0,0,0,0,,,,,,,,,,,,,,,,,,,,,
852962,1745295087075,0.1176,0.0,76,,-0.04,0.46,1.08,39,-3,-1,1.17,1.21,97,3201,19.0,4.33,,13.94,0.966,104.2,,31.6,5,,,,,,,,,,,,0,0,0,0,0,0,0,0,0,0,0,0,0,0,0,0,,,,,,0.0,,,,,,,,,,,,,,,
852982,1745295087101,0.118,,,,,,,,,,,,,,,,,,,,,,,,,,,,,,,,,,0,0,0,0,0,0,0,0,0,0,0,0,0,0,0,0,,,,,,,,,,,,,,,,,,,,,
853002,1745295087121,0.1183,0.0,34,,-0.03,0.55,0.98,39,-3,-1,1.12,1.21,93,3201,19.0,4.33,,13.94,0.955,104.2,,30.4,5,15,0,15,13,0.0,0.0,0.0,0.0,2.24,,,0,0,0,0,0,0,0,0,0,0,0,0,0,0,0,0,,2,,,,0.0,38.985695,-76.950912,22.94,46.1,34,3,0.8,0,0.0,-1,0.0,0.0,0,0.0133,0.1183
