"Interval"|"ms"|0|0|1,"Utc"|"ms"|0|0|1,"ElapsedTime"|"Min"|0.0|0.0|10,"FrontBP"|"psi"|-5.0|5.0|25,"SteerAng"|"Degrees"|-145|145|25,"Battery"|"Volts"|-5.0|20.0|1,"AccelX"|"G"|-3.0|3.0|25,"AccelY"|"G"|-3.0|3.0|25,"AccelZ"|"G"|-3.0|3.0|25,"Yaw"|"Deg/Sec"|-120|120|25,"Pitch"|"Deg/Sec"|-120|120|25,"Roll"|"Deg/Sec"|-120|120|25,"Gsum"|"G"|0.0|3.0|25,"GsumMax"|"G"|0.0|3.0|25,"GsumPct"|"%"|0|100|25,"RPM"|""|0|10000|25,"TPS"|"%"|0.0|100.0|25,"InjectorPW"|"ms"|0.0|100.0|25,"Baro"|"kPa"|0|105|1,"MAP"|"Psi"|0.0|255.0|25,"Lambda"|""|-2.0|2.0|25,"IAT"|"C"|0.0|200.0|25,"EngineTemp"|"C"|0|200|1,"EOP"|"PSI"|0.0|152.0|25,"EOT"|"F"|0|250|25,"WSFR"|"MPH"|0|150|10,"WSFL"|"MPH"|0|100|10,"WSRR"|"MPH"|0|100|10,"WSRL"|""|0|100|10,"TCSet"|"%"|0.0|100.0|10,"TCSlip"|"%"|0.0|100.0|10,"TCComp"|"deg"|0.0|50.0|10,"TCCut"|"%"|0.0|100.0|10,"Analog8"|""|0.0|5.0|10,"OilTemp"|"F"|0|300|1,"AA_On"|""|0.0|1.0|1,"ThermLF1"|"C"|0|400|50,"ThermLF2"|"C"|0|400|50,"ThermRR1"|"C"|0|400|50,"ThermRR2"|"C"|0|400|50,"ThermLF3"|"C"|0|400|50,"ThermLF4"|"C"|0|400|50,"ThermLF5"|"C"|0|400|50,"ThermLF6"|"C"|0|400|50,"ThermLF7"|"C"|0|400|50,"ThermLF8"|"C"|0|400|50,"ThermRR3"|"C"|0|400|50,"ThermRR4"|"C"|0|400|50,"ThermRR5"|"C"|0|400|50,"ThermRR6"|"C"|0|400|50,"ThermRR7"|"C"|0|400|50,"ThermRR8"|"C"|0|400|50,"AA_LowDrag"|""|0|1|1,"Gear"|""|1|6|10,"AA_On"|""|0.0|1.0|1,"AA_LowDrag"|""|0|1|1,"Fuel_Mix"|""|-10|10|1,"AA_Packages"|""|0.0|1000.0|25,"Latitude"|"Degrees"|-180.0|180.0|10,"Longitude"|"Degrees"|-180.0|180.0|10,"Speed"|"kph"|0.0|150.0|10,"Altitude"|"m"|0.0|4000.0|10,"GPSSats"|""|0|20|10,"GPSQual"|""|0|5|10,"GPSDOP"|""|0.0|20.0|10,"LapCount"|""|0|0|10,"LapTime"|"Min"|0.0|0.0|10,"Sector"|""|0|0|10,"SectorTime"|"Min"|0.0|0.0|10,"PredTime"|"Min"|0.0|0.0|5,"CurrentLap"|""|0|0|10,"Distance"|"mi"|0.0|0.0|10,"SessionTime"|"Min"|0.0|0.0|10
907123,1745295142289,0.0003,0.0,-27,,-0.06,0.03,0.97,0,-0,0,0.98,0.98,100,4130,15.5,3.92,,13.07,1.248,97.0,,38.6,5,,,,,,,,,,,,0,0,0,0,0,0,0,0,0,0,0,0,0,0,0,0,,,,,,0.0,,,,,,,,,,,,,,,
907143,1745295142307,0.0006,,,,,,,,,,,,,,,,,,,,,,,,,,,,,,,,,,0,0,0,0,0,0,0,0,0,0,0,0,0,0,0,0,,,,,,,,,,,,,,,,,,,,,
907163,1745295142327,0.001,0.0,-23,,-0.02,0.04,0.95,0,-0,0,0.95,0.98,97,4130,15.5,3.92,,13.13,1.131,97.0,,39.6,5,,,,,,,,,,,,0,0,0,0,0,0,0,0,0,0,0,0,0,0,0,0,,,,,,0.0,,,,,,,,,,,,,,,
907183,1745295142347,0.0013,,,,,,,,,,,,,,,,,,,,,,,,,,,,,,,,,,0,0,0,0,0,0,0,0,0,0,0,0,0,0,0,0,,,,,,,,,,,,,,,,,,,,,
907203,1745295142367,0.0016,0.0,-38,,-0.05,0.01,0.94,0,-0,0,0.94,0.98,96,4203,3.3,3.66,,12.88,1.096,97.0,,39.6,5,0,0,0,0,0.0,0.0,0.0,0.0,2.25,,,0,0,0,0,0,0,0,0,0,0,0,0,0,0,0,0,,0,,,,0.0,38.985771,-76.950233,0.05,46.3,34,3,0.8,0,0.0,-1,0.0,0.0,0,0.0,0.0016
907223,1745295142387,0.002,,,,,,,,,,,,,,,,,,,,,,,,,,,,,,,,,,0,0,0,0,0,0,0,0,0,0,0,0,0,0,0,0,,,,,,,,,,,,,,,,,,,,,
907243,1745295142409,0.0023,0.0,-31,,-0.04,0.09,1.0,-0,-0,1,1.01,1.01,100,4158,0.0,2.54,,12.04,1.138,97.0,,39.6,5,,,,,,,,,,,,0,0,0,0,0,0,0,0,0,0,0,0,0,0,0,0,,,,,,0.0,,,,,,,,,,,,,,,
907263,1745295142429,0.0026,,,,,,,,,,,,,,,,,,,,,,,,,,,,,,,,,,0,0,0,0,0,0,0,0,0,0,0,0,0,0,0,0,,,,,,,,,,,,,,,,,,,,,
907283,1745295142449,0.003,0.0,-19,,-0.07,-0.04,0.94,0,-0,0,0.95,1.01,94,4118,0.0,2.5,,11.64,1.194,97.0,,40.2,5,,,,,,,,,,,,0,0,0,0,0,0,0,0,0,0,0,0,0,0,0,0,,,,,,0.0,,,,,,,,,,,,,,,
907303,1745295142469,0.0033,,,,,,,,,,,,,,,,,,,,,,,0,0,0,0,0.0,0.0,0.0,0.0,2.25,,,0,0,0,0,0,0,0,0,0,0,0,0,0,0,0,0,,0,,,,,38.985771,-76.950233,0.04,46.3,34,3,0.8,0,0.0,-1,0.0,,0,0.0,0.0033
907323,1745295142489,0.0036,0.0,-27,,-0.06,-0.0,0.96,0,-0,-0,0.96,1.01,95,4036,0.0,2.48,,11.64,1.194,97.0,,40.2,5,,,,,,,,,,,,0,0,0,0,0,0,0,0,0,0,0,0,0,0,0,0,,,,,,0.0,,,,,,,,,,,,,,,
907343,1745295142509,0.004,,,,,,,,,,,,,,,,,,,,,,,,,,,,,,,,,,0,0,0,0,0,0,0,0,0,0,0,0,0,0,0,0,,,,,,,,,,,,,,,,,,,,,
907363,1745295142529,0.0043,0.0,-23,,-0.07,0.02,0.99,1,-0,0,0.99,1.01,98,4036,0.0,2.48,,11.34,1.25,97.0,,38.5,5,,,,,,,,,,,,0,0,0,0,0,0,0,0,0,0,0,0,0,0,0,0,,,,,,0.0,,,,,,,,,,,,,,,
907383,1745295142549,0.0046,,,,,,,,,,,,,,,,,,,,,,,,,,,,,,,,,,0,0,0,0,0,0,0,0,0,0,0,0,0,0,0,0,,,,,,,,,,,,,,,,,,,,,
907403,1745295142569,0.005,0.0,-38,13.52,-0.07,-0.0,0.99,1,-0,0,1.0,1.01,99,3872,0.0,2.51,15,11.18,1.25,97.0,180,38.5,5,0,0,0,0,0.0,0.0,0.0,0.0,2.26,0,1.0,0,0,0,0,0,0,0,0,0,0,0,0,0,0,0,0,0,0,1.0,0,0,0.0,38.985771,-76.950233,0.0,46.3,34,3,0.8,0,0.0,-1,0.0,0.0,0,0.0,0.005
907423,1745295142589,0.0053,,,,,,,,,,,,,,,,,,,,,,,,,,,,,,,,,,0,0,0,0,0,0,0,0,0,0,0,0,0,0,0,0,,,,,,,,,,,,,,,,,,,,,
907443,1745295142609,0.0056,0.0,-31,,-0.07,-0.03,0.97,1,-0,-0,0.98,1.01,97,3731,0.0,2.65,,11.22,1.249,97.0,,38.5,5,,,,,,,,,,,,0,0,0,0,0,0,0,0,0,0,0,0,0,0,0,0,,,,,,0.0,,,,,,,,,,,,,,,
907463,1745295142629,0.006,,,,,,,,,,,,,,,,,,,,,,,,,,,,,,,,,,0,0,0,0,0,0,0,0,0,0,0,0,0,0,0,0,,,,,,,,,,,,,,,,,,,,,
907483,1745295142649,0.0063,0.0,-15,,-0.07,-0.08,0.98,-1,-0,-0,0.98,1.01,98,3529,3.2,3.42,,11.63,1.248,97.0,,34.8,5,,,,,,,,,,,,0,0,0,0,0,0,0,0,0,0,0,0,0,0,0,0,,,,,,0.0,,,,,,,,,,,,,,,
907503,1745295142669,0.0066,,,,,,,,,,,,,,,,,,,,,,,0,0,0,0,0.0,0.0,0.0,0.0,2.26,,,0,0,0,0,0,0,0,0,0,0,0,0,0,0,0,0,,0,,,,,38.985771,-76.950233,0.13,46.3,34,3,0.8,0,0.0,-1,0.0,,0,0.0,0.0066
907523,1745295142689,0.007,0.0,-15,,-0.07,0.06,0.98,1,-0,0,0.98,1.01,98,3399,7.2,3.82,,11.63,1.248,97.0,,34.8,5,,,,,,,,,,,,0,0,0,0,0,0,0,0,0,0,0,0,0,0,0,0,,,,,,0.0,,,,,,,,,,,,,,,
907543,1745295142709,0.0073,,,,,,,,,,,,,,,,,,,,,,,,,,,,,,,,,,0,0,0,0,0,0,0,0,0,0,0,0,0,0,0,0,,,,,,,,,,,,,,,,,,,,,
907563,1745295142729,0.0076,0.0,-19,,-0.07,-0.04,1.01,-2,-0,-0,1.02,1.02,100,3399,7.2,3.82,,12.23,1.247,97.0,,31.1,5,,,,,,,,,,,,0,0,0,0,0,0,0,0,0,0,0,0,0,0,0,0,,,,,,0.0,,,,,,,,,,,,,,,
907583,1745295142749,0.008,,,,,,,,,,,,,,,,,,,,,,,,,,,,,,,,,,0,0,0,0,0,0,0,0,0,0,0,0,0,0,0,0,,,,,,,,,,,,,,,,,,,,,
907603,1745295142769,0.0083,0.0,-27,,-0.09,0.08,0.92,0,-0,-0,0.93,1.02,92,3259,10.2,3.99,,12.83,1.248,97.0,,31.1,5,0,0,0,0,0.0,0.0,0.0,0.0,2.26,,,0,0,0,0,0,0,0,0,0,0,0,0,0,0,0,0,,0,,,,0.0,38.985771,-76.950233,0.04,46.3,34,3,0.8,0,0.0,-1,0.0,0.0,0,0.0,0.0083
907623,1745295142789,0.0086,,,,,,,,,,,,,,,,,,,,,,,,,,,,,,,,,,0,0,0,0,0,0,0,0,0,0,0,0,0,0,0,0,,,,,,,,,,,,,,,,,,,,,
907643,1745295142808,0.009,0.0,-42,,-0.07,-0.01,1.01,-0,-0,0,1.02,1.02,100,3352,14.3,4.43,,13.39,1.248,97.0,,31.1,5,,,,,,,,,,,,0,0,0,0,0,0,0,0,0,0,0,0,0,0,0,0,,,,,,0.0,,,,,,,,,,,,,,,
907663,1745295142828,0.0093,,,,,,,,,,,,,,,,,,,,,,,,,,,,,,,,,,0,0,0,0,0,0,0,0,0,0,0,0,0,0,0,0,,,,,,,,,,,,,,,,,,,,,
907683,1745295142848,0.0096,0.0,-15,,-0.08,0.05,0.94,-0,-0,0,0.95,1.02,93,3404,17.2,4.56,,13.65,1.24,97.0,,30.7,5,,,,,,,,,,,,0,0,0,0,0,0,0,0,0,0,0,0,0,0,0,0,,,,,,0.0,,,,,,,,,,,,,,,
907703,1745295142868,0.01,,,,,,,,,,,,,,,,,,,,,,,0,0,0,0,0.0,0.0,0.0,0.0,2.26,,,0,0,0,0,0,0,0,0,0,0,0,0,0,0,0,0,,0,,,,,38.985771,-76.950233,0.05,46.3,34,3,0.8,0,0.0,-1,0.0,,0,0.0,0.01
907723,1745295142888,0.0103,0.0,-23,,-0.1,-0.03,0.97,0,-0,-0,0.98,1.02,96,3481,18.3,4.48,,13.65,1.24,97.0,,30.7,5,,,,,,,,,,,,0,0,0,0,0,0,0,0,0,0,0,0,0,0,0,0,,,,,,0.0,,,,,,,,,,,,,,,
907743,1745295142910,0.0106,,,,,,,,,,,,,,,,,,,,,,,,,,,,,,,,,,0,0,0,0,0,0,0,0,0,0,0,0,0,0,0,0,,,,,,,,,,,,,,,,,,,,,
907763,1745295142930,0.011,0.0,-15,,-0.11,-0.04,0.97,-0,-0,0,0.97,1.02,96,3481,18.3,4.48,,13.75,1.152,97.0,,33.4,5,,,,,,,,,,,,0,0,0,0,0,0,0,0,0,0,0,0,0,0,0,0,,,,,,0.0,,,,,,,,,,,,,,,
907783,1745295142950,0.0113,,,,,,,,,,,,,,,,,,,,,,,,,,,,,,,,,,0,0,0,0,0,0,0,0,0,0,0,0,0,0,0,0,,,,,,,,,,,,,,,,,,,,,
907803,1745295142970,0.0116,0.0,-38,,-0.1,-0.05,0.97,-0,-0,0,0.98,1.02,96,3701,18.8,4.38,,13.69,1.144,97.0,,33.4,5,0,0,0,0,0.0,0.0,0.0,0.0,2.25,,,0,0,0,0,0,0,0,0,0,0,0,0,0,0,0,0,,0,,,,0.0,38.985771,-76.950233,0.0,46.3,34,3,0.8,0,0.0,-1,0.0,0.0,0,0.0,0.0116
907823,1745295142990,0.012,,,,,,,,,,,,,,,,,,,,,,,,,,,,,,,,,,0,0,0,0,0,0,0,0,0,0,0,0,0,0,0,0,,,,,,,,,,,,,,,,,,,,,
907843,1745295143010,0.0123,0.0,-27,,-0.07,0.01,0.97,-0,-0,0,0.97,1.02,96,3937,18.9,4.24,,13.6,1.151,97.0,,33.4,5,,,,,,,,,,,,0,0,0,0,0,0,0,0,0,0,0,0,0,0,0,0,,,,,,0.0,,,,,,,,,,,,,,,
907863,1745295143020,0.0126,,,,,,,,,,,,,,,,,,,,,,,,,,,,,,,,,,0,0,0,0,0,0,0,0,0,0,0,0,0,0,0,0,,,,,,,,,,,,,,,,,,,,,
907883,1745295143040,0.013,0.0,-34,,-0.08,0.06,1.03,-1,-0,1,1.04,1.04,100,4021,0.0,2.57,,12.95,1.157,97.0,,36.8,5,,,,,,,,,,,,0,0,0,0,0,0,0,0,0,0,0,0,0,0,0,0,,,,,,0.0,,,,,,,,,,,,,,,
907903,1745295143060,0.0133,,,,,,,,,,,,,,,,,,,,,,,0,0,0,0,0.0,0.0,0.0,0.0,2.26,,,0,0,0,0,0,0,0,0,0,0,0,0,0,0,0,0,,0,,,,,38.985771,-76.950233,0.11,46.2,34,3,0.8,0,0.0,-1,0.0,,0,0.0,0.0133
907923,1745295143080,0.0136,0.0,-23,,-0.07,-0.02,0.97,-1,-0,0,0.97,1.04,94,4006,0.0,2.52,,12.95,1.157,97.0,,36.8,5,,,,,,,,,,,,0,0,0,0,0,0,0,0,0,0,0,0,0,0,0,0,,,,,,0.0,,,,,,,,,,,,,,,
907943,1745295143106,0.014,,,,,,,,,,,,,,,,,,,,,,,,,,,,,,,,,,0,0,0,0,0,0,0,0,0,0,0,0,0,0,0,0,,,,,,,,,,,,,,,,,,,,,
907963,1745295143126,0.0143,0.0,-23,,-0.06,0.0,0.96,-0,-0,0,0.97,1.04,93,4006,0.0,2.52,,12.24,1.147,97.0,,38.1,5,,,,,,,,,,,,0,0,0,0,0,0,0,0,0,0,0,0,0,0,0,0,,,,,,0.0,,,,,,,,,,,,,,,
907983,1745295143146,0.0146,,,,,,,,,,,,,,,,,,,,,,,,,,,,,,,,,,0,0,0,0,0,0,0,0,0,0,0,0,0,0,0,0,,,,,,,,,,,,,,,,,,,,,
908003,1745295143166,0.015,0.0,-34,,-0.05,0.04,0.97,-0,-0,0,0.97,1.04,94,3875,0.0,2.54,,11.81,1.14,97.0,,38.1,5,0,0,0,0,0.0,0.0,0.0,0.0,2.26,,,0,0,0,0,0,0,0,0,0,0,0,0,0,0,0,0,,0,,,,0.0,38.985771,-76.950233,0.04,46.2,34,3,0.8,0,0.0,-1,0.0,0.0,0,0.0,0.015
908023,1745295143186,0.0153,,,,,,,,,,,,,,,,,,,,,,,,,,,,,,,,,,0,0,0,0,0,0,0,0,0,0,0,0,0,0,0,0,,,,,,,,,,,,,,,,,,,,,
908043,1745295143208,0.0156,0.0,-38,,-0.05,-0.02,0.96,0,-0,0,0.96,1.04,93,3683,0.0,2.65,,11.64,1.155,97.0,,38.1,5,,,,,,,,,,,,0,0,0,0,0,0,0,0,0,0,0,0,0,0,0,0,,,,,,0.0,,,,,,,,,,,,,,,
908063,1745295143228,0.016,,,,,,,,,,,,,,,,,,,,,,,,,,,,,,,,,,0,0,0,0,0,0,0,0,0,0,0,0,0,0,0,0,,,,,,,,,,,,,,,,,,,,,
908083,1745295143248,0.0163,0.0,-27,,-0.06,-0.12,0.99,0,-0,0,1.0,1.04,96,3612,0.0,2.74,,11.6,1.201,97.0,,35.1,5,,,,,,,,,,,,0,0,0,0,0,0,0,0,0,0,0,0,0,0,0,0,,,,,,0.0,,,,,,,,,,,,,,,
908103,1745295143268,0.0166,,,,,,,,,,,,,,,,,,,,,,,0,0,0,0,0.0,0.0,0.0,0.0,2.26,,,0,0,0,0,0,0,0,0,0,0,0,0,0,0,0,0,,0,,,,,38.985771,-76.950233,0.15,46.2,34,3,0.8,0,0.0,-1,0.0,,0,0.0,0.0166
908123,1745295143288,0.017,0.0,-31,,-0.05,-0.06,1.01,-0,-0,0,1.02,1.04,98,3596,0.0,2.75,,11.6,1.201,97.0,,35.1,5,,,,,,,,,,,,0,0,0,0,0,0,0,0,0,0,0,0,0,0,0,0,,,,,,0.0,,,,,,,,,,,,,,,
908143,1745295143310,0.0173,,,,,,,,,,,,,,,,,,,,,,,,,,,,,,,,,,0,0,0,0,0,0,0,0,0,0,0,0,0,0,0,0,,,,,,,,,,,,,,,,,,,,,
908163,1745295143330,0.0176,0.0,-23,,-0.03,-0.02,0.96,0,-0,0,0.96,1.04,93,3596,0.0,2.75,,11.63,1.248,97.0,,33.7,5,,,,,,,,,,,,0,0,0,0,0,0,0,0,0,0,0,0,0,0,0,0,,,,,,0.0,,,,,,,,,,,,,,,
908183,1745295143350,0.018,,,,,,,,,,,,,,,,,,,,,,,,,,,,,,,,,,0,0,0,0,0,0,0,0,0,0,0,0,0,0,0,0,,,,,,,,,,,,,,,,,,,,,
908203,1745295143370,0.0183,0.0,-34,,-0.04,-0.16,0.97,0,-0,-0,0.99,1.04,95,3443,2.7,3.63,,11.93,1.185,97.0,,33.7,5,0,0,0,0,0.0,0.0,0.0,0.0,2.26,,,0,0,0,0,0,0,0,0,0,0,0,0,0,0,0,0,,0,,,,0.0,38.985771,-76.950233,0.15,46.2,34,3,0.8,0,0.0,-1,0.0,0.0,0,0.0,0.0183
908223,1745295143390,0.0187,,,,,,,,,,,,,,,,,,,,,,,,,,,,,,,,,,0,0,0,0,0,0,0,0,0,0,0,0,0,0,0,0,,,,,,,,,,,,,,,,,,,,,
908243,1745295143410,0.019,0.0,-42,,-0.04,-0.11,1.01,-1,-0,1,1.01,1.04,98,3488,8.7,3.68,,12.55,1.06,97.0,,33.7,5,,,,,,,,,,,,0,0,0,0,0,0,0,0,0,0,0,0,0,0,0,0,,,,,,0.0,,,,,,,,,,,,,,,
908263,1745295143430,0.0193,,,,,,,,,,,,,,,,,,,,,,,,,,,,,,,,,,0,0,0,0,0,0,0,0,0,0,0,0,0,0,0,0,,,,,,,,,,,,,,,,,,,,,
908283,1745295143450,0.0196,0.0,-31,,-0.05,-0.06,0.96,-0,-0,0,0.96,1.04,92,3360,10.8,3.93,,13.09,1.018,97.0,,32.3,5,,,,,,,,,,,,0,0,0,0,0,0,0,0,0,0,0,0,0,0,0,0,,,,,,0.0,,,,,,,,,,,,,,,
908303,1745295143470,0.02,,,,,,,,,,,,,,,,,,,,,,,0,0,0,0,0.0,0.0,0.0,0.0,2.25,,,0,0,0,0,0,0,0,0,0,0,0,0,0,0,0,0,,0,,,,,38.985771,-76.950233,0.05,46.2,34,3,0.8,0,0.0,-1,0.0,,0,0.0,0.02
908323,1745295143490,0.0203,0.0,-34,,-0.04,-0.14,1.03,-0,-0,0,1.04,1.04,100,3478,11.2,3.98,,13.09,1.018,97.0,,32.3,5,,,,,,,,,,,,0,0,0,0,0,0,0,0,0,0,0,0,0,0,0,0,,,,,,0.0,,,,,,,,,,,,,,,
908343,1745295143508,0.0206,,,,,,,,,,,,,,,,,,,,,,,,,,,,,,,,,,0,0,0,0,0,0,0,0,0,0,0,0,0,0,0,0,,,,,,,,,,,,,,,,,,,,,
908363,1745295143528,0.021,0.0,-27,,-0.04,-0.08,0.96,0,-0,0,0.97,1.04,93,3478,11.2,3.98,,13.27,0.957,97.0,,32.1,5,,,,,,,,,,,,0,0,0,0,0,0,0,0,0,0,0,0,0,0,0,0,,,,,,0.0,,,,,,,,,,,,,,,
908383,1745295143548,0.0213,,,,,,,,,,,,,,,,,,,,,,,,,,,,,,,,,,0,0,0,0,0,0,0,0,0,0,0,0,0,0,0,0,,,,,,,,,,,,,,,,,,,,,
908403,1745295143568,0.0216,0.0,-38,13.59,-0.06,-0.18,0.96,-1,-0,-0,0.98,1.04,95,3453,11.5,3.96,15,13.31,0.926,97.0,180,32.1,5,0,0,0,0,0.0,0.0,0.0,0.0,2.26,0,1.0,0,0,0,0,0,0,0,0,0,0,0,0,0,0,0,0,0,0,1.0,0,0,0.0,38.985771,-76.950233,0.32,46.2,34,3,0.8,0,0.0,-1,0.0,0.0,0,0.0,0.0216
908423,1745295143588,0.022,,,,,,,,,,,,,,,,,,,,,,,,,,,,,,,,,,0,0,0,0,0,0,0,0,0,0,0,0,0,0,0,0,,,,,,,,,,,,,,,,,,,,,
908443,1745295143610,0.0223,0.0,-38,,-0.07,-0.2,0.99,-1,-0,0,1.01,1.04,98,3543,11.6,4.0,,13.36,0.973,97.0,,32.1,5,,,,,,,,,,,,0,0,0,0,0,0,0,0,0,0,0,0,0,0,0,0,,,,,,0.0,,,,,,,,,,,,,,,
908463,1745295143630,0.0226,,,,,,,,,,,,,,,,,,,,,,,,,,,,,,,,,,0,0,0,0,0,0,0,0,0,0,0,0,0,0,0,0,,,,,,,,,,,,,,,,,,,,,
908483,1745295143650,0.023,0.0,-19,,-0.08,-0.11,1.02,-1,-0,1,1.03,1.04,99,3582,11.7,3.88,,13.32,1.04,97.0,,33.0,5,,,,,,,,,,,,0,0,0,0,0,0,0,0,0,0,0,0,0,0,0,0,,,,,,0.0,,,,,,,,,,,,,,,
908503,1745295143670,0.0233,,,,,,,,,,,,,,,,,,,,,,,0,0,0,0,0.0,0.0,0.0,0.0,2.25,,,0,0,0,0,0,0,0,0,0,0,0,0,0,0,0,0,,0,,,,,38.985771,-76.950233,0.36,46.2,34,3,0.8,0,0.0,-1,0.0,,0,0.0,0.0233
908523,1745295143690,0.0236,0.0,-8,,-0.08,-0.1,1.0,-1,-0,0,1.01,1.04,97,3854,11.7,3.71,,13.32,1.04,97.0,,33.0,5,,,,,,,,,,,,0,0,0,0,0,0,0,0,0,0,0,0,0,0,0,0,,,,,,0.0,,,,,,,,,,,,,,,
908543,1745295143710,0.024,,,,,,,,,,,,,,,,,,,,,,,,,,,,,,,,,,0,0,0,0,0,0,0,0,0,0,0,0,0,0,0,0,,,,,,,,,,,,,,,,,,,,,
908563,1745295143730,0.0243,0.0,17,,-0.07,-0.12,0.97,-0,-0,0,0.98,1.04,94,3854,11.7,3.71,,13.31,1.122,97.0,,36.2,5,,,,,,,,,,,,0,0,0,0,0,0,0,0,0,0,0,0,0,0,0,0,,,,,,0.0,,,,,,,,,,,,,,,
908583,1745295143750,0.0246,,,,,,,,,,,,,,,,,,,,,,,,,,,,,,,,,,0,0,0,0,0,0,0,0,0,0,0,0,0,0,0,0,,,,,,,,,,,,,,,,,,,,,
908603,1745295143770,0.025,0.0,20,,-0.04,-0.08,0.96,-0,-0,0,0.96,1.04,92,3854,6.2,3.55,,12.97,1.194,97.0,,36.2,5,0,0,0,0,0.0,0.0,0.0,0.0,2.26,,,0,0,0,0,0,0,0,0,0,0,0,0,0,0,0,0,,0,,,,0.0,38.985771,-76.950233,0.04,46.2,34,3,0.8,0,0.0,-1,0.0,0.0,0,0.0,0.025
908623,1745295143790,0.0253,,,,,,,,,,,,,,,,,,,,,,,,,,,,,,,,,,0,0,0,0,0,0,0,0,0,0,0,0,0,0,0,0,,,,,,,,,,,,,,,,,,,,,
908643,1745295143809,0.0256,0.0,22,,-0.04,-0.05,0.96,-0,-0,0,0.97,1.04,93,3874,0.0,2.59,,12.32,1.125,97.0,,36.2,5,,,,,,,,,,,,0,0,0,0,0,0,0,0,0,0,0,0,0,0,0,0,,,,,,0.0,,,,,,,,,,,,,,,
908663,1745295143829,0.026,,,,,,,,,,,,,,,,,,,,,,,,,,,,,,,,,,0,0,0,0,0,0,0,0,0,0,0,0,0,0,0,0,,,,,,,,,,,,,,,,,,,,,
908683,1745295143849,0.0263,0.0,31,,-0.05,-0.01,0.96,-0,-0,0,0.96,1.04,93,3813,0.0,2.64,,11.97,1.117,97.0,,36.9,5,,,,,,,,,,,,0,0,0,0,0,0,0,0,0,0,0,0,0,0,0,0,,,,,,0.0,,,,,,,,,,,,,,,
908703,1745295143869,0.0266,,,,,,,,,,,,,,,,,,,,,,,0,0,0,0,0.0,0.0,0.0,0.0,2.26,,,0,0,0,0,0,0,0,0,0,0,0,0,0,0,0,0,,0,,,,,38.985771,-76.950233,0.33,46.2,34,3,0.8,0,0.0,-1,0.0,,0,0.0,0.0266
908723,1745295143889,0.027,0.0,22,,-0.07,-0.04,0.96,0,-0,-0,0.96,1.04,92,3630,0.0,2.7,,11.97,1.117,97.0,,36.9,5,,,,,,,,,,,,0,0,0,0,0,0,0,0,0,0,0,0,0,0,0,0,,,,,,0.0,,,,,,,,,,,,,,,
908743,1745295143909,0.0273,,,,,,,,,,,,,,,,,,,,,,,,,,,,,,,,,,0,0,0,0,0,0,0,0,0,0,0,0,0,0,0,0,,,,,,,,,,,,,,,,,,,,,
908763,1745295143929,0.0276,0.0,20,,-0.08,-0.07,0.98,-0,-0,0,0.98,1.04,95,3630,0.0,2.7,,11.77,1.149,97.0,,34.3,5,,,,,,,,,,,,0,0,0,0,0,0,0,0,0,0,0,0,0,0,0,0,,,,,,0.0,,,,,,,,,,,,,,,
908783,1745295143949,0.028,,,,,,,,,,,,,,,,,,,,,,,,,,,,,,,,,,0,0,0,0,0,0,0,0,0,0,0,0,0,0,0,0,,,,,,,,,,,,,,,,,,,,,
908803,1745295143969,0.0283,0.0,17,,-0.08,0.05,1.0,-1,-0,1,1.0,1.04,97,3534,0.0,2.77,,11.72,1.181,97.0,,34.3,5,0,0,0,0,0.0,0.0,0.0,0.0,2.25,,,0,0,0,0,0,0,0,0,0,0,0,0,0,0,0,0,,0,,,,0.0,38.985771,-76.950233,0.5,46.2,34,3,0.8,0,0.0,-1,0.0,0.0,0,0.0,0.0283
908823,1745295143989,0.0286,,,,,,,,,,,,,,,,,,,,,,,,,,,,,,,,,,0,0,0,0,0,0,0,0,0,0,0,0,0,0,0,0,,,,,,,,,,,,,,,,,,,,,
908843,1745295144001,0.029,0.0,20,,-0.09,0.02,0.97,-0,-0,0,0.97,1.04,94,3381,0.0,2.89,,11.77,1.236,97.0,,34.3,5,,,,,,,,,,,,0,0,0,0,0,0,0,0,0,0,0,0,0,0,0,0,,,,,,0.0,,,,,,,,,,,,,,,
908863,1745295144021,0.0293,,,,,,,,,,,,,,,,,,,,,,,,,,,,,,,,,,0,0,0,0,0,0,0,0,0,0,0,0,0,0,0,0,,,,,,,,,,,,,,,,,,,,,
908883,1745295144041,0.0296,0.0,14,,-0.07,0.1,0.91,-0,-0,0,0.92,1.04,89,3239,0.0,2.99,,11.84,1.251,97.0,,31.4,5,,,,,,,,,,,,0,0,0,0,0,0,0,0,0,0,0,0,0,0,0,0,,,,,,0.0,,,,,,,,,,,,,,,
908903,1745295144061,0.03,,,,,,,,,,,,,,,,,,,,,,,0,0,0,0,0.0,0.0,0.0,0.0,2.25,,,0,0,0,0,0,0,0,0,0,0,0,0,0,0,0,0,,0,,,,,38.985771,-76.950233,0.06,46.2,34,3,0.8,0,0.0,-1,0.0,,0,0.0,0.03
908923,1745295144081,0.0303,0.0,11,,-0.04,0.1,0.91,-0,-0,0,0.92,1.04,89,3075,0.0,3.15,,11.84,1.251,97.0,,31.4,5,,,,,,,,,,,,0,0,0,0,0,0,0,0,0,0,0,0,0,0,0,0,,,,,,0.0,,,,,,,,,,,,,,,
908943,1745295144105,0.0306,,,,,,,,,,,,,,,,,,,,,,,,,,,,,,,,,,0,0,0,0,0,0,0,0,0,0,0,0,0,0,0,0,,,,,,,,,,,,,,,,,,,,,
908963,1745295144125,0.031,0.0,17,,-0.03,0.13,0.91,-0,-0,1,0.92,1.04,88,3075,0.0,3.15,,11.97,1.249,97.0,,27.6,5,,,,,,,,,,,,0,0,0,0,0,0,0,0,0,0,0,0,0,0,0,0,,,,,,0.0,,,,,,,,,,,,,,,
908983,1745295144145,0.0313,,,,,,,,,,,,,,,,,,,,,,,,,,,,,,,,,,0,0,0,0,0,0,0,0,0,0,0,0,0,0,0,0,,,,,,,,,,,,,,,,,,,,,
909003,1745295144165,0.0316,0.0,3,,-0.02,0.11,0.87,-0,-0,0,0.88,1.04,84,2953,0.0,3.26,,12.16,1.247,97.0,,27.6,5,0,0,0,0,0.0,0.0,0.0,0.0,2.26,,,0,0,0,0,0,0,0,0,0,0,0,0,0,0,0,0,,0,,,,0.0,38.985771,-76.950233,0.18,46.2,34,3,0.8,0,0.0,-1,0.0,0.0,0,0.0,0.0316
909023,1745295144185,0.032,,,,,,,,,,,,,,,,,,,,,,,,,,,,,,,,,,0,0,0,0,0,0,0,0,0,0,0,0,0,0,0,0,,,,,,,,,,,,,,,,,,,,,
909043,1745295144207,0.0323,0.0,-0,,-0.04,0.07,0.92,-0,-0,0,0.92,1.04,89,2740,1.6,3.63,,12.48,1.221,97.0,,27.6,5,,,,,,,,,,,,0,0,0,0,0,0,0,0,0,0,0,0,0,0,0,0,,,,,,0.0,,,,,,,,,,,,,,,
909063,1745295144227,0.0326,,,,,,,,,,,,,,,,,,,,,,,,,,,,,,,,,,0,0,0,0,0,0,0,0,0,0,0,0,0,0,0,0,,,,,,,,,,,,,,,,,,,,,
909083,1745295144247,0.033,0.0,8,,-0.05,0.09,0.92,-0,-0,0,0.92,1.04,89,2682,3.2,3.94,,12.88,1.187,97.0,,25.3,5,,,,,,,,,,,,0,0,0,0,0,0,0,0,0,0,0,0,0,0,0,0,,,,,,0.0,,,,,,,,,,,,,,,
909103,1745295144267,0.0333,,,,,,,,,,,,,,,,,,,,,,,0,0,0,0,0.0,0.0,0.0,0.0,2.26,,,0,0,0,0,0,0,0,0,0,0,0,0,0,0,0,0,,0,,,,,38.985771,-76.950233,0.28,46.2,34,3,0.8,0,0.0,-1,0.0,,0,0.0,0.0333
909123,1745295144287,0.0336,0.0,8,,-0.06,0.04,0.96,0,-0,0,0.96,1.04,93,2591,4.0,4.16,,12.88,1.187,97.0,,25.3,5,,,,,,,,,,,,0,0,0,0,0,0,0,0,0,0,0,0,0,0,0,0,,,,,,0.0,,,,,,,,,,,,,,,
909143,1745295144309,0.034,,,,,,,,,,,,,,,,,,,,,,,,,,,,,,,,,,0,0,0,0,0,0,0,0,0,0,0,0,0,0,0,0,,,,,,,,,,,,,,,,,,,,,
909163,1745295144329,0.0343,0.0,5,,-0.05,0.04,0.94,0,-0,0,0.94,1.04,91,2591,4.0,4.16,,13.19,1.165,97.0,,24.2,5,,,,,,,,,,,,0,0,0,0,0,0,0,0,0,0,0,0,0,0,0,0,,,,,,0.0,,,,,,,,,,,,,,,
909183,1745295144349,0.0347,,,,,,,,,,,,,,,,,,,,,,,,,,,,,,,,,,0,0,0,0,0,0,0,0,0,0,0,0,0,0,0,0,,,,,,,,,,,,,,,,,,,,,
909203,1745295144369,0.035,0.0,-0,,-0.06,0.04,0.95,0,-0,0,0.96,1.04,92,2587,4.2,4.15,,13.35,1.155,97.0,,24.2,5,0,0,0,0,0.0,0.0,0.0,0.0,2.26,,,0,0,0,0,0,0,0,0,0,0,0,0,0,0,0,0,,0,,,,0.0,38.985771,-76.950233,0.05,46.2,34,3,0.8,0,0.0,-1,0.0,0.0,0,0.0,0.035
909223,1745295144389,0.0353,,,,,,,,,,,,,,,,,,,,,,,,,,,,,,,,,,0,0,0,0,0,0,0,0,0,0,0,0,0,0,0,0,,,,,,,,,,,,,,,,,,,,,
909243,1745295144411,0.0356,0.0,-19,,-0.06,0.04,0.94,0,-0,0,0.94,1.04,91,2572,4.1,4.14,,13.49,1.138,97.0,,24.2,5,,,,,,,,,,,,0,0,0,0,0,0,0,0,0,0,0,0,0,0,0,0,,,,,,0.0,,,,,,,,,,,,,,,
909263,1745295144431,0.036,,,,,,,,,,,,,,,,,,,,,,,,,,,,,,,,,,0,0,0,0,0,0,0,0,0,0,0,0,0,0,0,0,,,,,,,,,,,,,,,,,,,,,
909283,1745295144451,0.0363,0.0,-4,,-0.07,0.02,0.98,0,-0,0,0.98,1.04,94,2669,3.3,4.04,,13.4,1.114,97.0,,24.2,5,,,,,,,,,,,,0,0,0,0,0,0,0,0,0,0,0,0,0,0,0,0,,,,,,0.0,,,,,,,,,,,,,,,
909303,1745295144471,0.0366,,,,,,,,,,,,,,,,,,,,,,,0,0,0,0,0.0,0.0,0.0,0.0,2.25,,,0,0,0,0,0,0,0,0,0,0,0,0,0,0,0,0,,0,,,,,38.985771,-76.950233,0.04,46.2,34,3,0.8,0,0.0,-1,0.0,,0,0.0,0.0366
909323,1745295144491,0.037,0.0,-15,,-0.07,0.04,0.95,1,-0,0,0.95,1.04,92,2700,0.0,3.38,,13.4,1.114,97.0,,24.2,5,,,,,,,,,,,,0,0,0,0,0,0,0,0,0,0,0,0,0,0,0,0,,,,,,0.0,,,,,,,,,,,,,,,
909343,1745295144511,0.0373,,,,,,,,,,,,,,,,,,,,,,,,,,,,,,,,,,0,0,0,0,0,0,0,0,0,0,0,0,0,0,0,0,,,,,,,,,,,,,,,,,,,,,
909363,1745295144531,0.0376,0.0,5,,-0.08,0.01,0.97,1,-0,-0,0.97,1.04,94,2700,0.0,3.38,,13.16,1.106,97.0,,24.3,5,,,,,,,,,,,,0,0,0,0,0,0,0,0,0,0,0,0,0,0,0,0,,,,,,0.0,,,,,,,,,,,,,,,
909383,1745295144551,0.038,,,,,,,,,,,,,,,,,,,,,,,,,,,,,,,,,,0,0,0,0,0,0,0,0,0,0,0,0,0,0,0,0,,,,,,,,,,,,,,,,,,,,,
909403,1745295144571,0.0383,0.0,-4,13.62,-0.07,0.01,0.96,1,-0,0,0.97,1.04,93,2705,0.0,3.36,15,12.99,1.095,97.0,180,24.3,5,0,0,0,0,0.0,0.0,0.0,0.0,2.25,0,1.0,0,0,0,0,0,0,0,0,0,0,0,0,0,0,0,0,0,0,1.0,0,0,0.0,38.985771,-76.950233,0.0,46.2,34,3,0.8,0,0.0,-1,0.0,0.0,0,0.0,0.0383
909423,1745295144591,0.0386,,,,,,,,,,,,,,,,,,,,,,,,,,,,,,,,,,0,0,0,0,0,0,0,0,0,0,0,0,0,0,0,0,,,,,,,,,,,,,,,,,,,,,
909443,1745295144609,0.039,0.0,-8,,-0.08,0.0,0.97,1,-0,-0,0.98,1.04,94,2667,0.0,3.37,,12.99,1.098,97.0,,24.3,5,,,,,,,,,,,,0,0,0,0,0,0,0,0,0,0,0,0,0,0,0,0,,,,,,0.0,,,,,,,,,,,,,,,
909463,1745295144629,0.0393,,,,,,,,,,,,,,,,,,,,,,,,,,,,,,,,,,0,0,0,0,0,0,0,0,0,0,0,0,0,0,0,0,,,,,,,,,,,,,,,,,,,,,
909483,1745295144649,0.0396,0.0,-4,,-0.07,0.01,0.97,1,-0,0,0.97,1.04,93,2639,20.1,4.61,,13.87,1.1,97.0,,23.9,5,,,,,,,,,,,,0,0,0,0,0,0,0,0,0,0,0,0,0,0,0,0,,,,,,0.0,,,,,,,,,,,,,,,
909503,1745295144669,0.04,,,,,,,,,,,,,,,,,,,,,,,0,0,0,0,0.0,0.0,0.0,0.0,2.26,,,0,0,0,0,0,0,0,0,0,0,0,0,0,0,0,0,,0,,,,,38.985771,-76.950233,0.0,46.2,34,3,0.8,0,0.0,-1,0.0,,0,0.0,0.04
909523,1745295144689,0.0403,0.0,-4,,-0.08,0.01,0.93,1,-0,-0,0.93,1.04,89,2720,30.6,5.13,,13.87,1.1,97.0,,23.9,5,,,,,,,,,,,,0,0,0,0,0,0,0,0,0,0,0,0,0,0,0,0,,,,,,0.0,,,,,,,,,,,,,,,
909543,1745295144711,0.0406,,,,,,,,,,,,,,,,,,,,,,,,,,,,,,,,,,0,0,0,0,0,0,0,0,0,0,0,0,0,0,0,0,,,,,,,,,,,,,,,,,,,,,
909563,1745295144731,0.041,0.0,-8,,-0.09,0.03,0.87,1,-0,-0,0.88,1.04,85,2720,30.6,5.13,,14.32,1.102,97.0,,25.8,5,,,,,,,,,,,,0,0,0,0,0,0,0,0,0,0,0,0,0,0,0,0,,,,,,0.0,,,,,,,,,,,,,,,
909583,1745295144751,0.0413,,,,,,,,,,,,,,,,,,,,,,,,,,,,,,,,,,0,0,0,0,0,0,0,0,0,0,0,0,0,0,0,0,,,,,,,,,,,,,,,,,,,,,
909603,1745295144771,0.0416,0.0,-12,,-0.08,0.1,0.86,3,-0,0,0.87,1.04,84,2962,37.2,4.76,,14.39,1.109,97.0,,25.8,5,0,0,0,0,0.0,0.0,0.0,0.0,2.26,,,0,0,0,0,0,0,0,0,0,0,0,0,0,0,0,0,,0,,,,0.0,38.985771,-76.950233,0.13,46.2,34,3,0.8,0,0.0,-1,0.0,0.0,0,0.0,0.0416
909623,1745295144791,0.042,,,,,,,,,,,,,,,,,,,,,,,,,,,,,,,,,,0,0,0,0,0,0,0,0,0,0,0,0,0,0,0,0,,,,,,,,,,,,,,,,,,,,,
909643,1745295144808,0.0423,0.0,-27,,-0.07,0.04,0.87,2,-0,-0,0.87,1.04,84,3479,37.9,4.64,,14.31,1.109,97.0,,25.8,5,,,,,,,,,,,,0,0,0,0,0,0,0,0,0,0,0,0,0,0,0,0,,,,,,0.0,,,,,,,,,,,,,,,
909663,1745295144828,0.0426,,,,,,,,,,,,,,,,,,,,,,,,,,,,,,,,,,0,0,0,0,0,0,0,0,0,0,0,0,0,0,0,0,,,,,,,,,,,,,,,,,,,,,
909683,1745295144848,0.043,0.0,-19,,-0.07,0.08,0.91,2,-0,-0,0.92,1.04,88,3715,38.3,4.18,,14.3,1.114,97.0,,32.6,5,,,,,,,,,,,,0,0,0,0,0,0,0,0,0,0,0,0,0,0,0,0,,,,,,0.0,,,,,,,,,,,,,,,
909703,1745295144868,0.0433,,,,,,,,,,,,,,,,,,,,,,,0,0,0,0,0.0,0.0,0.0,0.0,2.26,,,0,0,0,0,0,0,0,0,0,0,0,0,0,0,0,0,,0,,,,,38.985771,-76.950233,0.04,46.2,34,3,0.8,0,0.0,-1,0.0,,0,0.0,0.0433
909723,1745295144888,0.0436,0.0,-27,,-0.06,-0.03,0.86,1,-0,-0,0.86,1.04,83,4129,7.7,3.46,,14.3,1.114,97.0,,32.6,5,,,,,,,,,,,,0,0,0,0,0,0,0,0,0,0,0,0,0,0,0,0,,,,,,0.0,,,,,,,,,,,,,,,
909743,1745295144910,0.044,,,,,,,,,,,,,,,,,,,,,,,,,,,,,,,,,,0,0,0,0,0,0,0,0,0,0,0,0,0,0,0,0,,,,,,,,,,,,,,,,,,,,,
909763,1745295144930,0.0443,0.0,-27,,-0.07,0.07,0.95,2,-0,0,0.96,1.04,92,4129,7.7,3.46,,13.51,1.139,97.0,,39.5,5,,,,,,,,,,,,0,0,0,0,0,0,0,0,0,0,0,0,0,0,0,0,,,,,,0.0,,,,,,,,,,,,,,,
909783,1745295144950,0.0446,,,,,,,,,,,,,,,,,,,,,,,,,,,,,,,,,,0,0,0,0,0,0,0,0,0,0,0,0,0,0,0,0,,,,,,,,,,,,,,,,,,,,,
909803,1745295144970,0.045,0.0,-15,,-0.04,-0.03,0.88,1,-0,-0,0.88,1.04,85,4213,0.0,2.56,,12.53,1.149,97.0,,39.5,5,0,0,0,0,0.0,0.0,0.0,0.0,2.25,,,0,0,0,0,0,0,0,0,0,0,0,0,0,0,0,0,,0,,,,0.0,38.985771,-76.950233,0.04,46.2,34,3,0.8,0,0.0,-1,0.0,0.0,0,0.0,0.045
909823,1745295144990,0.0453,,,,,,,,,,,,,,,,,,,,,,,,,,,,,,,,,,0,0,0,0,0,0,0,0,0,0,0,0,0,0,0,0,,,,,,,,,,,,,,,,,,,,,
909843,1745295145010,0.0457,0.0,-27,,-0.06,0.09,0.97,2,-0,0,0.98,1.04,94,4100,0.0,2.51,,11.89,1.165,97.0,,39.5,5,,,,,,,,,,,,0,0,0,0,0,0,0,0,0,0,0,0,0,0,0,0,,,,,,0.0,,,,,,,,,,,,,,,
909863,1745295145020,0.046,,,,,,,,,,,,,,,,,,,,,,,,,,,,,,,,,,0,0,0,0,0,0,0,0,0,0,0,0,0,0,0,0,,,,,,,,,,,,,,,,,,,,,
909883,1745295145040,0.0463,0.0,-12,,-0.06,0.01,0.97,1,-0,0,0.98,1.04,94,3986,0.0,2.49,,11.53,1.175,97.0,,39.0,5,,,,,,,,,,,,0,0,0,0,0,0,0,0,0,0,0,0,0,0,0,0,,,,,,0.0,,,,,,,,,,,,,,,
909903,1745295145060,0.0466,,,,,,,,,,,,,,,,,,,,,,,0,0,0,0,0.0,0.0,0.0,0.0,2.25,,,0,0,0,0,0,0,0,0,0,0,0,0,0,0,0,0,,0,,,,,38.985771,-76.950233,0.04,46.2,34,3,0.8,0,0.0,-1,0.0,,0,0.0,0.0466
909923,1745295145080,0.047,0.0,-27,,-0.05,-0.05,0.97,0,-0,0,0.97,1.04,94,3889,0.0,2.54,,11.53,1.175,97.0,,39.0,5,,,,,,,,,,,,0,0,0,0,0,0,0,0,0,0,0,0,0,0,0,0,,,,,,0.0,,,,,,,,,,,,,,,
909943,1745295145106,0.0473,,,,,,,,,,,,,,,,,,,,,,,,,,,,,,,,,,0,0,0,0,0,0,0,0,0,0,0,0,0,0,0,0,,,,,,,,,,,,,,,,,,,,,
909963,1745295145126,0.0476,0.0,-19,,-0.06,-0.05,0.98,0,-0,0,0.98,1.04,94,3889,0.0,2.54,,11.46,1.197,97.0,,36.5,5,,,,,,,,,,,,0,0,0,0,0,0,0,0,0,0,0,0,0,0,0,0,,,,,,0.0,,,,,,,,,,,,,,,
909983,1745295145146,0.048,,,,,,,,,,,,,,,,,,,,,,,,,,,,,,,,,,0,0,0,0,0,0,0,0,0,0,0,0,0,0,0,0,,,,,,,,,,,,,,,,,,,,,
910003,1745295145166,0.0483,0.0,-31,,-0.05,-0.06,0.96,-0,-0,-0,0.96,1.04,93,3716,0.0,2.64,,11.4,1.234,97.0,,36.5,5,0,0,0,0,0.0,0.0,0.0,0.0,2.26,,,0,0,0,0,0,0,0,0,0,0,0,0,0,0,0,0,,0,,,,0.0,38.985771,-76.950233,0.04,46.2,34,3,0.8,0,0.0,-1,0.0,0.0,0,0.0,0.0483
910023,1745295145186,0.0486,,,,,,,,,,,,,,,,,,,,,,,,,,,,,,,,,,0,0,0,0,0,0,0,0,0,0,0,0,0,0,0,0,,,,,,,,,,,,,,,,,,,,,
910043,1745295145208,0.049,0.0,-31,,-0.07,-0.02,0.99,-0,-0,0,0.99,1.04,95,3753,0.0,2.64,,11.37,1.248,97.0,,36.5,5,,,,,,,,,,,,0,0,0,0,0,0,0,0,0,0,0,0,0,0,0,0,,,,,,0.0,,,,,,,,,,,,,,,
910063,1745295145228,0.0493,,,,,,,,,,,,,,,,,,,,,,,,,,,,,,,,,,0,0,0,0,0,0,0,0,0,0,0,0,0,0,0,0,,,,,,,,,,,,,,,,,,,,,
910083,1745295145248,0.0496,0.0,-15,,-0.05,-0.05,0.97,1,-0,0,0.98,1.04,94,3554,0.1,2.76,,11.63,1.248,97.0,,35.0,5,,,,,,,,,,,,0,0,0,0,0,0,0,0,0,0,0,0,0,0,0,0,,,,,,0.0,,,,,,,,,,,,,,,
910103,1745295145268,0.05,,,,,,,,,,,,,,,,,,,,,,,0,0,0,0,0.0,0.0,0.0,0.0,2.26,,,0,0,0,0,0,0,0,0,0,0,0,0,0,0,0,0,,0,,,,,38.985771,-76.950233,0.1,46.1,34,3,0.8,0,0.0,-1,0.0,,0,0.0,0.05
910123,1745295145288,0.0503,0.0,-12,,-0.05,-0.08,0.94,1,-0,-0,0.94,1.04,91,3546,0.5,2.95,,11.63,1.248,97.0,,35.0,5,,,,,,,,,,,,0,0,0,0,0,0,0,0,0,0,0,0,0,0,0,0,,,,,,0.0,,,,,,,,,,,,,,,
910143,1745295145310,0.0506,,,,,,,,,,,,,,,,,,,,,,,,,,,,,,,,,,0,0,0,0,0,0,0,0,0,0,0,0,0,0,0,0,,,,,,,,,,,,,,,,,,,,,
910163,1745295145330,0.051,0.0,-19,,-0.09,-0.12,0.98,1,-0,-0,0.99,1.04,96,3546,0.5,2.95,,11.79,1.248,97.0,,33.7,5,,,,,,,,,,,,0,0,0,0,0,0,0,0,0,0,0,0,0,0,0,0,,,,,,0.0,,,,,,,,,,,,,,,
910183,1745295145350,0.0513,,,,,,,,,,,,,,,,,,,,,,,,,,,,,,,,,,0,0,0,0,0,0,0,0,0,0,0,0,0,0,0,0,,,,,,,,,,,,,,,,,,,,,
910203,1745295145370,0.0516,0.0,-15,,-0.06,0.03,0.99,-0,-0,1,0.99,1.04,96,3520,0.6,3.0,,11.95,1.249,97.0,,33.7,5,0,0,0,0,0.0,0.0,0.0,0.0,2.26,,,0,0,0,0,0,0,0,0,0,0,0,0,0,0,0,0,,0,,,,0.0,38.985771,-76.950233,0.08,46.1,34,3,0.8,0,0.0,-1,0.0,0.0,0,0.0,0.0516
910223,1745295145390,0.052,,,,,,,,,,,,,,,,,,,,,,,,,,,,,,,,,,0,0,0,0,0,0,0,0,0,0,0,0,0,0,0,0,,,,,,,,,,,,,,,,,,,,,
910243,1745295145410,0.0523,0.0,-23,,-0.08,-0.02,0.96,0,-0,-0,0.97,1.04,93,3416,0.6,3.08,,12.09,1.092,97.0,,33.7,5,,,,,,,,,,,,0,0,0,0,0,0,0,0,0,0,0,0,0,0,0,0,,,,,,0.0,,,,,,,,,,,,,,,
910263,1745295145430,0.0526,,,,,,,,,,,,,,,,,,,,,,,,,,,,,,,,,,0,0,0,0,0,0,0,0,0,0,0,0,0,0,0,0,,,,,,,,,,,,,,,,,,,,,
910283,1745295145450,0.053,0.0,-15,,-0.06,0.04,0.96,-0,-0,0,0.97,1.04,93,3303,0.7,3.15,,12.13,1.025,97.0,,31.5,5,,,,,,,,,,,,0,0,0,0,0,0,0,0,0,0,0,0,0,0,0,0,,,,,,0.0,,,,,,,,,,,,,,,
910303,1745295145470,0.0533,,,,,,,,,,,,,,,,,,,,,,,0,0,0,0,0.0,0.0,0.0,0.0,2.26,,,0,0,0,0,0,0,0,0,0,0,0,0,0,0,0,0,,0,,,,,38.985771,-76.950233,0.04,46.1,34,3,0.8,0,0.0,-1,0.0,,0,0.0,0.0533
910323,1745295145490,0.0536,0.0,-27,,-0.08,-0.04,1.04,-0,-0,0,1.04,1.04,100,3208,2.6,3.79,,12.13,1.025,97.0,,31.5,5,,,,,,,,,,,,0,0,0,0,0,0,0,0,0,0,0,0,0,0,0,0,,,,,,0.0,,,,,,,,,,,,,,,
910343,1745295145508,0.054,,,,,,,,,,,,,,,,,,,,,,,,,,,,,,,,,,0,0,0,0,0,0,0,0,0,0,0,0,0,0,0,0,,,,,,,,,,,,,,,,,,,,,
910363,1745295145528,0.0543,0.0,-19,,-0.11,-0.06,1.05,0,-0,-0,1.06,1.06,100,3208,2.6,3.79,,12.37,1.034,97.0,,29.0,5,,,,,,,,,,,,0,0,0,0,0,0,0,0,0,0,0,0,0,0,0,0,,,,,,0.0,,,,,,,,,,,,,,,
910383,1745295145548,0.0546,,,,,,,,,,,,,,,,,,,,,,,,,,,,,,,,,,0,0,0,0,0,0,0,0,0,0,0,0,0,0,0,0,,,,,,,,,,,,,,,,,,,,,
910403,1745295145568,0.055,0.0,-27,13.71,-0.12,-0.03,0.99,1,-0,-0,1.0,1.06,94,3129,12.0,4.32,15,13.0,1.067,97.0,180,29.0,5,0,0,0,0,0.0,0.0,0.0,0.0,2.25,0,1.0,0,0,0,0,0,0,0,0,0,0,0,0,0,0,0,0,0,0,1.0,0,0,0.0,38.985771,-76.950233,0.18,46.1,34,3,0.8,0,0.0,-1,0.0,0.0,0,0.0,0.055
910423,1745295145588,0.0553,,,,,,,,,,,,,,,,,,,,,,,,,,,,,,,,,,0,0,0,0,0,0,0,0,0,0,0,0,0,0,0,0,,,,,,,,,,,,,,,,,,,,,
910443,1745295145610,0.0556,0.0,-27,,-0.09,0.06,0.91,0,-0,-0,0.91,1.06,86,3119,14.3,4.59,,13.47,1.09,97.0,,29.0,5,,,,,,,,,,,,0,0,0,0,0,0,0,0,0,0,0,0,0,0,0,0,,,,,,0.0,,,,,,,,,,,,,,,
910463,1745295145630,0.056,,,,,,,,,,,,,,,,,,,,,,,,,,,,,,,,,,0,0,0,0,0,0,0,0,0,0,0,0,0,0,0,0,,,,,,,,,,,,,,,,,,,,,
910483,1745295145650,0.0563,0.0,-19,,-0.07,0.03,0.99,-0,-0,0,0.99,1.06,93,3276,15.8,4.68,,13.73,1.104,97.0,,29.1,5,,,,,,,,,,,,0,0,0,0,0,0,0,0,0,0,0,0,0,0,0,0,,,,,,0.0,,,,,,,,,,,,,,,
910503,1745295145670,0.0566,,,,,,,,,,,,,,,,,,,,,,,0,0,0,0,0.0,0.0,0.0,0.0,2.26,,,0,0,0,0,0,0,0,0,0,0,0,0,0,0,0,0,,0,,,,,38.985771,-76.950233,0.1,46.1,34,3,0.8,0,0.0,-1,0.0,,0,0.0,0.0566
910523,1745295145690,0.057,0.0,-23,,-0.09,0.05,0.96,0,-0,-0,0.96,1.06,91,3421,16.0,4.52,,13.73,1.104,97.0,,29.1,5,,,,,,,,,,,,0,0,0,0,0,0,0,0,0,0,0,0,0,0,0,0,,,,,,0.0,,,,,,,,,,,,,,,
910543,1745295145710,0.0573,,,,,,,,,,,,,,,,,,,,,,,,,,,,,,,,,,0,0,0,0,0,0,0,0,0,0,0,0,0,0,0,0,,,,,,,,,,,,,,,,,,,,,
910563,1745295145730,0.0576,0.0,-27,,-0.08,-0.02,1.02,-1,-0,0,1.02,1.06,96,3421,16.0,4.52,,13.69,1.119,97.0,,31.8,5,,,,,,,,,,,,0,0,0,0,0,0,0,0,0,0,0,0,0,0,0,0,,,,,,0.0,,,,,,,,,,,,,,,
910583,1745295145750,0.058,,,,,,,,,,,,,,,,,,,,,,,,,,,,,,,,,,0,0,0,0,0,0,0,0,0,0,0,0,0,0,0,0,,,,,,,,,,,,,,,,,,,,,
910603,1745295145770,0.0583,0.0,-31,,-0.08,0.05,1.01,1,-0,0,1.01,1.06,96,3501,2.2,3.86,,13.29,1.116,97.0,,31.8,5,0,0,0,0,0.0,0.0,0.0,0.0,2.25,,,0,0,0,0,0,0,0,0,0,0,0,0,0,0,0,0,,0,,,,0.0,38.985771,-76.950233,0.0,46.1,34,3,0.8,0,0.0,-1,0.0,0.0,0,0.0,0.0583
910623,1745295145790,0.0586,,,,,,,,,,,,,,,,,,,,,,,,,,,,,,,,,,0,0,0,0,0,0,0,0,0,0,0,0,0,0,0,0,,,,,,,,,,,,,,,,,,,,,
910643,1745295145809,0.059,0.0,-27,,-0.08,0.1,1.0,1,-0,0,1.01,1.06,95,3607,0.0,2.85,,12.68,1.121,97.0,,31.8,5,,,,,,,,,,,,0,0,0,0,0,0,0,0,0,0,0,0,0,0,0,0,,,,,,0.0,,,,,,,,,,,,,,,
910663,1745295145829,0.0593,,,,,,,,,,,,,,,,,,,,,,,,,,,,,,,,,,0,0,0,0,0,0,0,0,0,0,0,0,0,0,0,0,,,,,,,,,,,,,,,,,,,,,
910683,1745295145849,0.0596,0.0,-12,,-0.08,-0.03,0.97,-0,-0,-0,0.97,1.06,92,3515,0.0,2.83,,12.37,1.112,97.0,,33.5,5,,,,,,,,,,,,0,0,0,0,0,0,0,0,0,0,0,0,0,0,0,0,,,,,,0.0,,,,,,,,,,,,,,,
910703,1745295145869,0.06,,,,,,,,,,,,,,,,,,,,,,,0,0,0,0,0.0,0.0,0.0,0.0,2.26,,,0,0,0,0,0,0,0,0,0,0,0,0,0,0,0,0,,0,,,,,38.985771,-76.950233,0.18,46.1,34,3,0.8,0,0.0,-1,0.0,,0,0.0,0.06
910723,1745295145889,0.0603,0.0,-23,,-0.06,-0.07,1.03,1,-0,0,1.04,1.06,98,3463,0.0,2.9,,12.37,1.112,97.0,,33.5,5,,,,,,,,,,,,0,0,0,0,0,0,0,0,0,0,0,0,0,0,0,0,,,,,,0.0,,,,,,,,,,,,,,,
910743,1745295145909,0.0606,,,,,,,,,,,,,,,,,,,,,,,,,,,,,,,,,,0,0,0,0,0,0,0,0,0,0,0,0,0,0,0,0,,,,,,,,,,,,,,,,,,,,,
910763,1745295145929,0.061,0.0,-15,,-0.08,-0.02,0.96,-0,-0,-0,0.97,1.06,91,3463,0.0,2.9,,12.2,1.09,97.0,,31.8,5,,,,,,,,,,,,0,0,0,0,0,0,0,0,0,0,0,0,0,0,0,0,,,,,,0.0,,,,,,,,,,,,,,,
910783,1745295145949,0.0613,,,,,,,,,,,,,,,,,,,,,,,,,,,,,,,,,,0,0,0,0,0,0,0,0,0,0,0,0,0,0,0,0,,,,,,,,,,,,,,,,,,,,,
910803,1745295145969,0.0616,0.0,-23,,-0.07,-0.02,1.01,1,-0,0,1.01,1.06,95,3288,3.7,3.99,,12.4,1.115,97.0,,31.8,5,0,0,0,0,0.0,0.0,0.0,0.0,2.26,,,0,0,0,0,0,0,0,0,0,0,0,0,0,0,0,0,,0,,,,0.0,38.985771,-76.950233,0.08,46.1,34,3,0.8,0,0.0,-1,0.0,0.0,0,0.0,0.0616
910823,1745295145989,0.062,,,,,,,,,,,,,,,,,,,,,,,,,,,,,,,,,,0,0,0,0,0,0,0,0,0,0,0,0,0,0,0,0,,,,,,,,,,,,,,,,,,,,,
910843,1745295146001,0.0623,0.0,-4,,-0.07,0.03,0.95,-0,-0,-0,0.96,1.06,90,3435,9.1,3.83,,12.93,1.141,97.0,,31.8,5,,,,,,,,,,,,0,0,0,0,0,0,0,0,0,0,0,0,0,0,0,0,,,,,,0.0,,,,,,,,,,,,,,,
910863,1745295146021,0.0626,,,,,,,,,,,,,,,,,,,,,,,,,,,,,,,,,,0,0,0,0,0,0,0,0,0,0,0,0,0,0,0,0,,,,,,,,,,,,,,,,,,,,,
910883,1745295146041,0.063,0.0,-15,,-0.07,-0.01,0.99,-0,-0,-0,0.99,1.06,94,3516,9.9,3.78,,13.11,1.215,97.0,,31.3,5,,,,,,,,,,,,0,0,0,0,0,0,0,0,0,0,0,0,0,0,0,0,,,,,,0.0,,,,,,,,,,,,,,,
910903,1745295146061,0.0633,,,,,,,,,,,,,,,,,,,,,,,0,0,0,0,0.0,0.0,0.0,0.0,2.25,,,0,0,0,0,0,0,0,0,0,0,0,0,0,0,0,0,,0,,,,,38.985771,-76.950233,0.05,46.1,34,3,0.8,0,0.0,-1,0.0,,0,0.0,0.0633
910923,1745295146081,0.0636,0.0,-8,,-0.08,0.11,1.02,1,-0,0,1.03,1.06,97,3573,10.0,3.82,,13.11,1.215,97.0,,31.3,5,,,,,,,,,,,,0,0,0,0,0,0,0,0,0,0,0,0,0,0,0,0,,,,,,0.0,,,,,,,,,,,,,,,
910943,1745295146105,0.064,,,,,,,,,,,,,,,,,,,,,,,,,,,,,,,,,,0,0,0,0,0,0,0,0,0,0,0,0,0,0,0,0,,,,,,,,,,,,,,,,,,,,,
910963,1745295146125,0.0643,0.0,3,,-0.08,0.15,0.99,1,-0,0,1.01,1.06,95,3573,10.0,3.82,,13.23,1.137,97.0,,32.8,5,,,,,,,,,,,,0,0,0,0,0,0,0,0,0,0,0,0,0,0,0,0,,,,,,0.0,,,,,,,,,,,,,,,
910983,1745295146145,0.0646,,,,,,,,,,,,,,,,,,,,,,,,,,,,,,,,,,0,0,0,0,0,0,0,0,0,0,0,0,0,0,0,0,,,,,,,,,,,,,,,,,,,,,
911003,1745295146165,0.065,0.0,-8,,-0.08,0.12,0.98,0,-0,0,0.99,1.06,93,3600,11.5,3.84,,13.28,1.057,97.0,,32.8,5,0,0,0,0,0.0,0.0,0.0,0.0,2.26,,,0,0,0,0,0,0,0,0,0,0,0,0,0,0,0,0,,0,,,,0.0,38.985771,-76.950233,0.15,46.1,34,3,0.8,0,0.0,-1,0.0,0.0,0,0.0,0.065
911023,1745295146185,0.0653,,,,,,,,,,,,,,,,,,,,,,,,,,,,,,,,,,0,0,0,0,0,0,0,0,0,0,0,0,0,0,0,0,,,,,,,,,,,,,,,,,,,,,
911043,1745295146209,0.0656,0.0,-12,,-0.09,0.11,1.02,0,-0,0,1.03,1.06,97,3852,11.6,3.79,,13.27,1.053,97.0,,32.8,5,,,,,,,,,,,,0,0,0,0,0,0,0,0,0,0,0,0,0,0,0,0,,,,,,0.0,,,,,,,,,,,,,,,
911063,1745295146229,0.066,,,,,,,,,,,,,,,,,,,,,,,,,,,,,,,,,,0,0,0,0,0,0,0,0,0,0,0,0,0,0,0,0,,,,,,,,,,,,,,,,,,,,,
911083,1745295146249,0.0663,0.0,-23,,-0.09,0.05,1.03,-0,-0,0,1.04,1.06,98,3865,11.2,3.59,,13.11,1.124,97.0,,35.7,5,,,,,,,,,,,,0,0,0,0,0,0,0,0,0,0,0,0,0,0,0,0,,,,,,0.0,,,,,,,,,,,,,,,
911103,1745295146269,0.0667,,,,,,,,,,,,,,,,,,,,,,,0,0,0,0,0.0,0.0,0.0,0.0,2.26,,,0,0,0,0,0,0,0,0,0,0,0,0,0,0,0,0,,0,,,,,38.985771,-76.950233,0.05,46.1,34,3,0.8,0,0.0,-1,0.0,,0,0.0,0.0667
911123,1745295146289,0.067,0.0,-0,,-0.08,0.01,1.01,-1,-0,0,1.01,1.06,95,3892,0.0,2.64,,13.11,1.124,97.0,,35.7,5,,,,,,,,,,,,0,0,0,0,0,0,0,0,0,0,0,0,0,0,0,0,,,,,,0.0,,,,,,,,,,,,,,,
911143,1745295146309,0.0673,,,,,,,,,,,,,,,,,,,,,,,,,,,,,,,,,,0,0,0,0,0,0,0,0,0,0,0,0,0,0,0,0,,,,,,,,,,,,,,,,,,,,,
911163,1745295146329,0.0676,0.0,-8,,-0.08,-0.04,0.99,-1,-0,0,1.0,1.06,94,3892,0.0,2.64,,12.59,1.101,97.0,,36.9,5,,,,,,,,,,,,0,0,0,0,0,0,0,0,0,0,0,0,0,0,0,0,,,,,,0.0,,,,,,,,,,,,,,,
911183,1745295146349,0.068,,,,,,,,,,,,,,,,,,,,,,,,,,,,,,,,,,0,0,0,0,0,0,0,0,0,0,0,0,0,0,0,0,,,,,,,,,,,,,,,,,,,,,
911203,1745295146369,0.0683,0.0,-8,,-0.07,0.02,0.99,0,-0,0,1.0,1.06,94,3822,0.0,2.61,,12.05,1.095,97.0,,36.9,5,0,0,0,0,0.0,0.0,0.0,0.0,2.26,,,0,0,0,0,0,0,0,0,0,0,0,0,0,0,0,0,,0,,,,0.0,38.985771,-76.950233,0.13,46.1,34,3,0.8,0,0.0,-1,0.0,0.0,0,0.0,0.0683
911223,1745295146389,0.0686,,,,,,,,,,,,,,,,,,,,,,,,,,,,,,,,,,0,0,0,0,0,0,0,0,0,0,0,0,0,0,0,0,,,,,,,,,,,,,,,,,,,,,
911243,1745295146409,0.069,0.0,-27,,-0.07,0.04,1.02,-0,-0,1,1.02,1.06,96,3734,0.0,2.71,,11.79,1.124,97.0,,36.9,5,,,,,,,,,,,,0,0,0,0,0,0,0,0,0,0,0,0,0,0,0,0,,,,,,0.0,,,,,,,,,,,,,,,
911263,1745295146429,0.0693,,,,,,,,,,,,,,,,,,,,,,,,,,,,,,,,,,0,0,0,0,0,0,0,0,0,0,0,0,0,0,0,0,,,,,,,,,,,,,,,,,,,,,
911283,1745295146449,0.0696,0.0,-15,,-0.05,0.07,1.02,-0,-0,1,1.02,1.06,96,3563,0.0,2.76,,11.77,1.159,97.0,,34.7,5,,,,,,,,,,,,0,0,0,0,0,0,0,0,0,0,0,0,0,0,0,0,,,,,,0.0,,,,,,,,,,,,,,,
911303,1745295146469,0.07,,,,,,,,,,,,,,,,,,,,,,,0,0,0,0,0.0,0.0,0.0,0.0,2.26,,,0,0,0,0,0,0,0,0,0,0,0,0,0,0,0,0,,0,,,,,38.985771,-76.950233,0.0,46.1,34,3,0.8,0,0.0,-1,0.0,,0,0.0,0.07
911323,1745295146489,0.0703,0.0,-8,,-0.05,0.05,0.98,0,-0,0,0.98,1.06,93,3471,0.0,2.84,,11.77,1.159,97.0,,34.7,5,,,,,,,,,,,,0,0,0,0,0,0,0,0,0,0,0,0,0,0,0,0,,,,,,0.0,,,,,,,,,,,,,,,
911343,1745295146509,0.0706,,,,,,,,,,,,,,,,,,,,,,,,,,,,,,,,,,0,0,0,0,0,0,0,0,0,0,0,0,0,0,0,0,,,,,,,,,,,,,,,,,,,,,
911363,1745295146529,0.071,0.0,-12,,-0.06,-0.01,1.04,0,-0,0,1.04,1.06,98,3471,0.0,2.84,,11.81,1.216,97.0,,33.4,5,,,,,,,,,,,,0,0,0,0,0,0,0,0,0,0,0,0,0,0,0,0,,,,,,0.0,,,,,,,,,,,,,,,
911383,1745295146549,0.0713,,,,,,,,,,,,,,,,,,,,,,,,,,,,,,,,,,0,0,0,0,0,0,0,0,0,0,0,0,0,0,0,0,,,,,,,,,,,,,,,,,,,,,
911403,1745295146569,0.0716,0.0,-0,13.73,-0.06,0.03,0.95,2,-0,0,0.95,1.06,90,3502,1.6,3.16,15,12.04,1.25,97.0,180,33.4,5,0,0,0,0,0.0,0.0,0.0,0.0,2.26,0,1.0,0,0,0,0,0,0,0,0,0,0,0,0,0,0,0,0,0,0,1.0,0,0,0.0,38.985771,-76.950233,0.04,46.1,34,3,0.8,0,0.0,-1,0.0,0.0,0,0.0,0.0716
911423,1745295146589,0.072,,,,,,,,,,,,,,,,,,,,,,,,,,,,,,,,,,0,0,0,0,0,0,0,0,0,0,0,0,0,0,0,0,,,,,,,,,,,,,,,,,,,,,
911443,1745295146609,0.0723,0.0,-12,,-0.04,-0.06,1.04,1,-0,0,1.04,1.06,98,3387,3.6,3.9,,12.39,1.25,97.0,,33.4,5,,,,,,,,,,,,0,0,0,0,0,0,0,0,0,0,0,0,0,0,0,0,,,,,,0.0,,,,,,,,,,,,,,,
911463,1745295146629,0.0726,,,,,,,,,,,,,,,,,,,,,,,,,,,,,,,,,,0,0,0,0,0,0,0,0,0,0,0,0,0,0,0,0,,,,,,,,,,,,,,,,,,,,,
911483,1745295146649,0.073,0.0,-15,,-0.07,-0.06,1.0,-0,-0,0,1.01,1.06,95,3191,5.5,3.97,,12.65,1.212,97.0,,30.7,5,,,,,,,,,,,,0,0,0,0,0,0,0,0,0,0,0,0,0,0,0,0,,,,,,0.0,,,,,,,,,,,,,,,
911503,1745295146669,0.0733,,,,,,,,,,,,,,,,,,,,,,,0,0,0,0,0.0,0.0,0.0,0.0,2.25,,,0,0,0,0,0,0,0,0,0,0,0,0,0,0,0,0,,0,,,,,38.985771,-76.950233,0.05,46.1,34,3,0.8,0,0.0,-1,0.0,,0,0.0,0.0733
911523,1745295146689,0.0736,0.0,-0,,-0.08,0.01,0.93,1,-0,0,0.93,1.06,88,3133,9.6,3.87,,12.65,1.212,97.0,,30.7,5,,,,,,,,,,,,0,0,0,0,0,0,0,0,0,0,0,0,0,0,0,0,,,,,,0.0,,,,,,,,,,,,,,,
911543,1745295146709,0.074,,,,,,,,,,,,,,,,,,,,,,,,,,,,,,,,,,0,0,0,0,0,0,0,0,0,0,0,0,0,0,0,0,,,,,,,,,,,,,,,,,,,,,
911563,1745295146729,0.0743,0.0,3,,-0.06,0.07,0.93,2,-0,0,0.93,1.06,88,3133,9.6,3.87,,13.09,1.118,97.0,,28.7,5,,,,,,,,,,,,0,0,0,0,0,0,0,0,0,0,0,0,0,0,0,0,,,,,,0.0,,,,,,,,,,,,,,,
911583,1745295146749,0.0746,,,,,,,,,,,,,,,,,,,,,,,,,,,,,,,,,,0,0,0,0,0,0,0,0,0,0,0,0,0,0,0,0,,,,,,,,,,,,,,,,,,,,,
911603,1745295146769,0.075,0.0,-0,,-0.08,-0.02,1.01,1,-0,0,1.01,1.06,96,3223,12.9,4.4,,13.4,1.07,97.0,,28.7,5,0,0,0,0,0.0,0.0,0.0,0.0,2.26,,,0,0,0,0,0,0,0,0,0,0,0,0,0,0,0,0,,0,,,,0.0,38.985771,-76.950233,0.09,46.1,34,3,0.8,0,0.0,-1,0.0,0.0,0,0.0,0.075
911623,1745295146789,0.0753,,,,,,,,,,,,,,,,,,,,,,,,,,,,,,,,,,0,0,0,0,0,0,0,0,0,0,0,0,0,0,0,0,,,,,,,,,,,,,,,,,,,,,
911643,1745295146808,0.0756,0.0,-27,,-0.08,0.03,0.95,2,-0,0,0.96,1.06,90,3279,15.0,4.42,,13.63,1.057,97.0,,28.7,5,,,,,,,,,,,,0,0,0,0,0,0,0,0,0,0,0,0,0,0,0,0,,,,,,0.0,,,,,,,,,,,,,,,
911663,1745295146828,0.076,,,,,,,,,,,,,,,,,,,,,,,,,,,,,,,,,,0,0,0,0,0,0,0,0,0,0,0,0,0,0,0,0,,,,,,,,,,,,,,,,,,,,,
911683,1745295146848,0.0763,0.0,-8,,-0.08,-0.06,1.02,1,-0,0,1.02,1.06,96,3470,15.4,4.4,,13.71,1.065,97.0,,30.9,5,,,,,,,,,,,,0,0,0,0,0,0,0,0,0,0,0,0,0,0,0,0,,,,,,0.0,,,,,,,,,,,,,,,
911703,1745295146868,0.0766,,,,,,,,,,,,,,,,,,,,,,,0,0,0,0,0.0,0.0,0.0,0.0,2.26,,,0,0,0,0,0,0,0,0,0,0,0,0,0,0,0,0,,0,,,,,38.985771,-76.950233,0.08,46.1,34,3,0.8,0,0.0,-1,0.0,,0,0.0,0.0766
911723,1745295146888,0.077,0.0,-0,,-0.07,0.06,1.0,1,-0,1,1.01,1.06,95,3530,15.5,4.29,,13.71,1.065,97.0,,30.9,5,,,,,,,,,,,,0,0,0,0,0,0,0,0,0,0,0,0,0,0,0,0,,,,,,0.0,,,,,,,,,,,,,,,
911743,1745295146908,0.0773,,,,,,,,,,,,,,,,,,,,,,,,,,,,,,,,,,0,0,0,0,0,0,0,0,0,0,0,0,0,0,0,0,,,,,,,,,,,,,,,,,,,,,
911763,1745295146928,0.0777,0.0,-4,,-0.06,0.08,1.0,1,-0,0,1.0,1.06,95,3530,15.5,4.29,,13.69,1.091,97.0,,33.3,5,,,,,,,,,,,,0,0,0,0,0,0,0,0,0,0,0,0,0,0,0,0,,,,,,0.0,,,,,,,,,,,,,,,
911783,1745295146948,0.078,,,,,,,,,,,,,,,,,,,,,,,,,,,,,,,,,,0,0,0,0,0,0,0,0,0,0,0,0,0,0,0,0,,,,,,,,,,,,,,,,,,,,,
911803,1745295146968,0.0783,0.0,3,,-0.06,0.05,1.01,1,-0,0,1.02,1.06,96,3706,15.6,4.24,,13.63,1.098,97.0,,33.3,5,0,0,0,0,0.0,0.0,0.0,0.0,2.25,,,0,0,0,0,0,0,0,0,0,0,0,0,0,0,0,0,,0,,,,0.0,38.985771,-76.950233,0.04,46.1,34,3,0.8,0,0.0,-1,0.0,0.0,0,0.0,0.0783
911823,1745295146988,0.0786,,,,,,,,,,,,,,,,,,,,,,,,,,,,,,,,,,0,0,0,0,0,0,0,0,0,0,0,0,0,0,0,0,,,,,,,,,,,,,,,,,,,,,
911843,1745295147008,0.079,0.0,-4,,-0.06,0.05,1.03,0,-0,0,1.03,1.06,97,3752,15.8,4.16,,13.56,1.108,97.0,,33.3,5,,,,,,,,,,,,0,0,0,0,0,0,0,0,0,0,0,0,0,0,0,0,,,,,,0.0,,,,,,,,,,,,,,,
911863,1745295147020,0.0793,,,,,,,,,,,,,,,,,,,,,,,,,,,,,,,,,,0,0,0,0,0,0,0,0,0,0,0,0,0,0,0,0,,,,,,,,,,,,,,,,,,,,,
911883,1745295147040,0.0796,0.0,-4,,-0.07,-0.04,0.99,1,-0,0,0.99,1.06,93,3948,15.9,4.09,,13.48,1.098,97.0,,36.0,5,,,,,,,,,,,,0,0,0,0,0,0,0,0,0,0,0,0,0,0,0,0,,,,,,0.0,,,,,,,,,,,,,,,
911903,1745295147060,0.08,,,,,,,,,,,,,,,,,,,,,,,0,0,0,0,0.0,0.0,0.0,0.0,2.25,,,0,0,0,0,0,0,0,0,0,0,0,0,0,0,0,0,,0,,,,,38.985771,-76.950233,0.0,46.1,34,3,0.8,0,0.0,-1,0.0,,0,0.0,0.08
911923,1745295147080,0.0803,0.0,-4,,-0.05,-0.07,0.94,1,-0,-0,0.94,1.06,89,3952,14.4,3.83,,13.48,1.098,97.0,,36.0,5,,,,,,,,,,,,0,0,0,0,0,0,0,0,0,0,0,0,0,0,0,0,,,,,,0.0,,,,,,,,,,,,,,,
911943,1745295147106,0.0806,,,,,,,,,,,,,,,,,,,,,,,,,,,,,,,,,,0,0,0,0,0,0,0,0,0,0,0,0,0,0,0,0,,,,,,,,,,,,,,,,,,,,,
911963,1745295147126,0.081,0.0,-46,,-0.05,0.03,1.01,0,-0,0,1.01,1.06,95,3952,14.4,3.83,,13.44,1.097,97.0,,37.8,5,,,,,,,,,,,,0,0,0,0,0,0,0,0,0,0,0,0,0,0,0,0,,,,,,0.0,,,,,,,,,,,,,,,
911983,1745295147146,0.0813,,,,,,,,,,,,,,,,,,,,,,,,,,,,,,,,,,0,0,0,0,0,0,0,0,0,0,0,0,0,0,0,0,,,,,,,,,,,,,,,,,,,,,
912003,1745295147166,0.0816,0.0,5,,-0.06,-0.08,0.93,1,-0,-0,0.94,1.06,88,4020,14.3,3.78,,13.31,1.105,97.0,,37.8,5,0,0,0,0,0.0,0.0,0.0,0.0,2.25,,,0,0,0,0,0,0,0,0,0,0,0,0,0,0,0,0,,0,,,,0.0,38.985771,-76.950233,0.05,46.1,34,3,0.8,0,0.0,-1,0.0,0.0,0,0.0,0.0816
912023,1745295147186,0.082,,,,,,,,,,,,,,,,,,,,,,,,,,,,,,,,,,0,0,0,0,0,0,0,0,0,0,0,0,0,0,0,0,,,,,,,,,,,,,,,,,,,,,
912043,1745295147210,0.0823,0.0,-4,,-0.03,0.04,0.99,0,-0,0,0.99,1.06,94,4114,9.6,3.46,,13.08,1.109,97.0,,37.8,5,,,,,,,,,,,,0,0,0,0,0,0,0,0,0,0,0,0,0,0,0,0,,,,,,0.0,,,,,,,,,,,,,,,
912063,1745295147230,0.0826,,,,,,,,,,,,,,,,,,,,,,,,,,,,,,,,,,0,0,0,0,0,0,0,0,0,0,0,0,0,0,0,0,,,,,,,,,,,,,,,,,,,,,
912083,1745295147250,0.083,0.0,-8,,-0.05,-0.03,0.97,0,-0,0,0.97,1.06,92,4061,2.7,3.79,,12.67,1.122,97.0,,39.0,5,,,,,,,,,,,,0,0,0,0,0,0,0,0,0,0,0,0,0,0,0,0,,,,,,0.0,,,,,,,,,,,,,,,
912103,1745295147270,0.0833,,,,,,,,,,,,,,,,,,,,,,,0,0,0,0,0.0,0.0,0.0,0.0,2.26,,,0,0,0,0,0,0,0,0,0,0,0,0,0,0,0,0,,0,,,,,38.985771,-76.950233,0.08,46.1,34,3,0.8,0,0.0,-1,0.0,,0,0.0,0.0833
912123,1745295147290,0.0836,0.0,3,,-0.04,-0.06,0.94,1,-0,-0,0.94,1.06,89,3977,0.0,2.52,,12.67,1.122,97.0,,39.0,5,,,,,,,,,,,,0,0,0,0,0,0,0,0,0,0,0,0,0,0,0,0,,,,,,0.0,,,,,,,,,,,,,,,
912143,1745295147310,0.084,,,,,,,,,,,,,,,,,,,,,,,,,,,,,,,,,,0,0,0,0,0,0,0,0,0,0,0,0,0,0,0,0,,,,,,,,,,,,,,,,,,,,,
912163,1745295147330,0.0843,0.0,3,,-0.02,0.03,0.99,0,-0,0,0.99,1.06,93,3977,0.0,2.52,,12.13,1.14,97.0,,37.9,5,,,,,,,,,,,,0,0,0,0,0,0,0,0,0,0,0,0,0,0,0,0,,,,,,0.0,,,,,,,,,,,,,,,
912183,1745295147350,0.0846,,,,,,,,,,,,,,,,,,,,,,,,,,,,,,,,,,0,0,0,0,0,0,0,0,0,0,0,0,0,0,0,0,,,,,,,,,,,,,,,,,,,,,
912203,1745295147370,0.085,0.0,5,,-0.03,0.04,0.99,-0,-0,1,0.99,1.06,94,3914,0.0,2.55,,11.85,1.161,97.0,,37.9,5,0,0,0,0,0.0,0.0,0.0,0.0,2.26,,,0,0,0,0,0,0,0,0,0,0,0,0,0,0,0,0,,0,,,,0.0,38.985771,-76.950233,0.06,46.1,34,3,0.8,0,0.0,-1,0.0,0.0,0,0.0,0.085
912223,1745295147390,0.0853,,,,,,,,,,,,,,,,,,,,,,,,,,,,,,,,,,0,0,0,0,0,0,0,0,0,0,0,0,0,0,0,0,,,,,,,,,,,,,,,,,,,,,
912243,1745295147410,0.0856,0.0,-4,,-0.02,0.03,0.97,-0,-0,0,0.97,1.06,92,3795,0.0,2.59,,11.79,1.184,97.0,,37.9,5,,,,,,,,,,,,0,0,0,0,0,0,0,0,0,0,0,0,0,0,0,0,,,,,,0.0,,,,,,,,,,,,,,,
912263,1745295147430,0.086,,,,,,,,,,,,,,,,,,,,,,,,,,,,,,,,,,0,0,0,0,0,0,0,0,0,0,0,0,0,0,0,0,,,,,,,,,,,,,,,,,,,,,
912283,1745295147450,0.0863,0.0,-15,,-0.03,0.02,0.95,-0,-0,0,0.95,1.06,90,3692,2.0,3.16,,11.91,1.205,97.0,,35.6,5,,,,,,,,,,,,0,0,0,0,0,0,0,0,0,0,0,0,0,0,0,0,,,,,,0.0,,,,,,,,,,,,,,,
912303,1745295147470,0.0866,,,,,,,,,,,,,,,,,,,,,,,0,0,0,0,0.0,0.0,0.0,0.0,2.25,,,0,0,0,0,0,0,0,0,0,0,0,0,0,0,0,0,,0,,,,,38.985771,-76.950233,0.0,46.1,34,3,0.8,0,0.0,-1,0.0,,0,0.0,0.0866
912323,1745295147490,0.087,0.0,5,,-0.05,-0.06,0.96,0,-0,-0,0.96,1.06,90,3557,3.7,3.77,,11.91,1.205,97.0,,35.6,5,,,,,,,,,,,,0,0,0,0,0,0,0,0,0,0,0,0,0,0,0,0,,,,,,0.0,,,,,,,,,,,,,,,
912343,1745295147510,0.0873,,,,,,,,,,,,,,,,,,,,,,,,,,,,,,,,,,0,0,0,0,0,0,0,0,0,0,0,0,0,0,0,0,,,,,,,,,,,,,,,,,,,,,
912363,1745295147530,0.0876,0.0,3,,-0.07,-0.1,0.96,-0,-0,0,0.97,1.06,92,3557,3.7,3.77,,12.2,1.214,97.0,,32.8,5,,,,,,,,,,,,0,0,0,0,0,0,0,0,0,0,0,0,0,0,0,0,,,,,,0.0,,,,,,,,,,,,,,,
912383,1745295147550,0.088,,,,,,,,,,,,,,,,,,,,,,,,,,,,,,,,,,0,0,0,0,0,0,0,0,0,0,0,0,0,0,0,0,,,,,,,,,,,,,,,,,,,,,
912403,1745295147570,0.0883,0.0,-0,13.74,-0.05,-0.03,0.98,-1,-0,1,0.98,1.06,93,3637,4.1,3.97,15,12.44,1.25,97.0,180,32.8,5,0,0,0,0,0.0,0.0,0.0,0.0,2.25,0,1.0,0,0,0,0,0,0,0,0,0,0,0,0,0,0,0,0,0,0,1.0,0,0,0.0,38.985771,-76.950233,0.0,46.1,34,3,0.8,0,0.0,-1,0.0,0.0,0,0.0,0.0883
912423,1745295147590,0.0887,,,,,,,,,,,,,,,,,,,,,,,,,,,,,,,,,,0,0,0,0,0,0,0,0,0,0,0,0,0,0,0,0,,,,,,,,,,,,,,,,,,,,,
912443,1745295147610,0.089,0.0,-4,,-0.05,0.0,0.93,-0,-0,0,0.93,1.06,88,3521,4.2,4.05,,12.56,1.25,97.0,,32.8,5,,,,,,,,,,,,0,0,0,0,0,0,0,0,0,0,0,0,0,0,0,0,,,,,,0.0,,,,,,,,,,,,,,,
912463,1745295147630,0.0893,,,,,,,,,,,,,,,,,,,,,,,,,,,,,,,,,,0,0,0,0,0,0,0,0,0,0,0,0,0,0,0,0,,,,,,,,,,,,,,,,,,,,,
912483,1745295147650,0.0896,0.0,-8,,-0.08,-0.02,1.0,-0,-0,0,1.0,1.06,95,3486,4.2,4.05,,12.61,1.155,97.0,,32.7,5,,,,,,,,,,,,0,0,0,0,0,0,0,0,0,0,0,0,0,0,0,0,,,,,,0.0,,,,,,,,,,,,,,,
912503,1745295147670,0.09,,,,,,,,,,,,,,,,,,,,,,,0,0,0,0,0.0,0.0,0.0,0.0,2.25,,,0,0,0,0,0,0,0,0,0,0,0,0,0,0,0,0,,0,,,,,38.985771,-76.950233,0.0,46.1,34,3,0.8,0,0.0,-1,0.0,,0,0.0,0.09
912523,1745295147690,0.0903,0.0,-8,,-0.05,0.11,0.94,-0,-0,0,0.95,1.06,89,3375,9.9,3.92,,12.61,1.155,97.0,,32.7,5,,,,,,,,,,,,0,0,0,0,0,0,0,0,0,0,0,0,0,0,0,0,,,,,,0.0,,,,,,,,,,,,,,,
912543,1745295147710,0.0906,,,,,,,,,,,,,,,,,,,,,,,,,,,,,,,,,,0,0,0,0,0,0,0,0,0,0,0,0,0,0,0,0,,,,,,,,,,,,,,,,,,,,,
912563,1745295147730,0.091,0.0,-12,,-0.07,-0.02,1.01,-0,-0,0,1.01,1.06,95,3375,9.9,3.92,,12.91,1.057,97.0,,31.1,5,,,,,,,,,,,,0,0,0,0,0,0,0,0,0,0,0,0,0,0,0,0,,,,,,0.0,,,,,,,,,,,,,,,
912583,1745295147750,0.0913,,,,,,,,,,,,,,,,,,,,,,,,,,,,,,,,,,0,0,0,0,0,0,0,0,0,0,0,0,0,0,0,0,,,,,,,,,,,,,,,,,,,,,
912603,1745295147770,0.0916,0.0,-8,,-0.05,0.12,0.97,-0,-0,0,0.97,1.06,92,3403,16.8,4.55,,13.51,1.031,97.0,,31.1,5,0,0,0,0,0.0,0.0,0.0,0.0,2.26,,,0,0,0,0,0,0,0,0,0,0,0,0,0,0,0,0,,0,,,,0.0,38.985771,-76.950233,0.0,46.1,34,3,0.8,0,0.0,-1,0.0,0.0,0,0.0,0.0916
912623,1745295147790,0.092,,,,,,,,,,,,,,,,,,,,,,,,,,,,,,,,,,0,0,0,0,0,0,0,0,0,0,0,0,0,0,0,0,,,,,,,,,,,,,,,,,,,,,
912643,1745295147809,0.0923,0.0,-12,,-0.06,-0.04,1.0,0,-0,0,1.0,1.06,95,3352,21.1,4.65,,13.88,1.011,97.0,,31.1,5,,,,,,,,,,,,0,0,0,0,0,0,0,0,0,0,0,0,0,0,0,0,,,,,,0.0,,,,,,,,,,,,,,,
912663,1745295147829,0.0926,,,,,,,,,,,,,,,,,,,,,,,,,,,,,,,,,,0,0,0,0,0,0,0,0,0,0,0,0,0,0,0,0,,,,,,,,,,,,,,,,,,,,,
912683,1745295147849,0.093,0.0,-15,,-0.06,0.06,1.02,-1,-0,1,1.02,1.06,97,3618,26.3,4.6,,14.06,0.992,97.0,,31.5,5,,,,,,,,,,,,0,0,0,0,0,0,0,0,0,0,0,0,0,0,0,0,,,,,,0.0,,,,,,,,,,,,,,,
912703,1745295147869,0.0933,,,,,,,,,,,,,,,,,,,,,,,0,0,0,0,0.0,0.0,0.0,0.0,2.26,,,0,0,0,0,0,0,0,0,0,0,0,0,0,0,0,0,,0,,,,,38.985771,-76.950233,0.04,46.1,34,3,0.8,0,0.0,-1,0.0,,0,0.0,0.0933
912723,1745295147889,0.0936,0.0,-8,,-0.05,0.04,0.98,-0,-0,0,0.98,1.06,92,3810,28.1,4.78,,14.06,0.992,97.0,,31.5,5,,,,,,,,,,,,0,0,0,0,0,0,0,0,0,0,0,0,0,0,0,0,,,,,,0.0,,,,,,,,,,,,,,,
912743,1745295147909,0.094,,,,,,,,,,,,,,,,,,,,,,,,,,,,,,,,,,0,0,0,0,0,0,0,0,0,0,0,0,0,0,0,0,,,,,,,,,,,,,,,,,,,,,
912763,1745295147929,0.0943,0.0,3,,-0.02,0.08,0.97,0,-0,-0,0.98,1.06,92,3810,28.1,4.78,,14.04,1.014,97.0,,36.3,5,,,,,,,,,,,,0,0,0,0,0,0,0,0,0,0,0,0,0,0,0,0,,,,,,0.0,,,,,,,,,,,,,,,
912783,1745295147949,0.0946,,,,,,,,,,,,,,,,,,,,,,,,,,,,,,,,,,0,0,0,0,0,0,0,0,0,0,0,0,0,0,0,0,,,,,,,,,,,,,,,,,,,,,
912803,1745295147969,0.095,0.0,-0,,0.02,0.05,0.92,1,-0,-0,0.93,1.06,87,4177,38.9,4.12,,14.18,1.058,97.0,,36.3,5,0,0,0,0,0.0,0.0,0.0,0.0,2.26,,,0,0,0,0,0,0,0,0,0,0,0,0,0,0,0,0,,0,,,,0.0,38.985771,-76.950233,0.05,46.1,34,3,0.8,0,0.0,-1,0.0,0.0,0,0.0,0.095
912823,1745295147989,0.0953,,,,,,,,,,,,,,,,,,,,,,,,,,,,,,,,,,0,0,0,0,0,0,0,0,0,0,0,0,0,0,0,0,,,,,,,,,,,,,,,,,,,,,
912843,1745295148009,0.0956,0.0,-4,,0.0,0.04,0.93,0,-0,-0,0.93,1.06,88,4842,42.3,4.73,,14.22,1.121,97.0,,36.3,5,,,,,,,,,,,,0,0,0,0,0,0,0,0,0,0,0,0,0,0,0,0,,,,,,0.0,,,,,,,,,,,,,,,
912863,1745295148019,0.096,,,,,,,,,,,,,,,,,,,,,,,,,,,,,,,,,,0,0,0,0,0,0,0,0,0,0,0,0,0,0,0,0,,,,,,,,,,,,,,,,,,,,,
912883,1745295148039,0.0963,0.0,-0,,0.01,0.14,1.0,1,-0,-0,1.01,1.06,95,5378,46.4,5.38,,14.16,1.083,97.0,,48.0,5,,,,,,,,,,,,0,0,0,0,0,0,0,0,0,0,0,0,0,0,0,0,,,,,,0.0,,,,,,,,,,,,,,,
912903,1745295148059,0.0966,,,,,,,,,,,,,,,,,,,,,,,0,0,0,0,0.0,0.0,0.0,0.0,2.25,,,0,0,0,0,0,0,0,0,0,0,0,0,0,0,0,0,,0,,,,,38.985771,-76.950233,0.06,46.1,34,3,0.8,0,0.0,-1,0.0,,0,0.0,0.0966
912923,1745295148079,0.097,0.0,3,,-0.01,0.11,1.01,1,-0,-0,1.02,1.06,96,6338,48.1,5.44,,14.16,1.083,97.0,,48.0,5,,,,,,,,,,,,0,0,0,0,0,0,0,0,0,0,0,0,0,0,0,0,,,,,,0.0,,,,,,,,,,,,,,,
912943,1745295148099,0.0973,,,,,,,,,,,,,,,,,,,,,,,,,,,,,,,,,,0,0,0,0,0,0,0,0,0,0,0,0,0,0,0,0,,,,,,,,,,,,,,,,,,,,,
912963,1745295148119,0.0976,0.0,3,,0.01,0.21,1.0,0,-0,-0,1.02,1.06,96,6338,48.1,5.44,,13.88,1.072,97.0,,64.4,5,,,,,,,,,,,,0,0,0,0,0,0,0,0,0,0,0,0,0,0,0,0,,,,,,0.0,,,,,,,,,,,,,,,
912983,1745295148139,0.098,,,,,,,,,,,,,,,,,,,,,,,,,,,,,,,,,,0,0,0,0,0,0,0,0,0,0,0,0,0,0,0,0,,,,,,,,,,,,,,,,,,,,,
913003,1745295148159,0.0983,0.0,8,,0.0,0.16,1.0,1,-0,-0,1.01,1.06,95,8005,48.5,4.74,,13.56,1.009,97.0,,64.4,5,0,0,0,0,0.0,0.0,0.0,0.0,2.25,,,0,0,0,0,0,0,0,0,0,0,0,0,0,0,0,0,,0,,,,0.0,38.985771,-76.950233,0.08,46.1,34,3,0.8,0,0.0,-1,0.0,0.0,0,0.0,0.0983
913023,1745295148179,0.0986,,,,,,,,,,,,,,,,,,,,,,,,,,,,,,,,,,0,0,0,0,0,0,0,0,0,0,0,0,0,0,0,0,,,,,,,,,,,,,,,,,,,,,
913043,1745295148205,0.099,0.0,11,,0.03,0.31,0.96,1,-0,-0,1.01,1.06,95,9617,47.2,5.1,,13.01,0.924,97.0,,64.4,5,,,,,,,,,,,,0,0,0,0,0,0,0,0,0,0,0,0,0,0,0,0,,,,,,0.0,,,,,,,,,,,,,,,
913063,1745295148225,0.0993,,,,,,,,,,,,,,,,,,,,,,,,,,,,,,,,,,0,0,0,0,0,0,0,0,0,0,0,0,0,0,0,0,,,,,,,,,,,,,,,,,,,,,
913083,1745295148245,0.0996,0.0,11,,0.03,0.14,1.02,1,-0,-0,1.03,1.06,97,11283,41.9,4.17,,12.4,0.894,97.0,,66.7,5,,,,,,,,,,,,0,0,0,0,0,0,0,0,0,0,0,0,0,0,0,0,,,,,,0.0,,,,,,,,,,,,,,,
913103,1745295148265,0.1,,,,,,,,,,,,,,,,,,,,,,,0,0,0,0,0.0,0.0,0.0,0.0,2.25,,,0,0,0,0,0,0,0,0,0,0,0,0,0,0,0,0,,0,,,,,38.985771,-76.950233,0.0,46.1,34,3,0.8,0,0.0,-1,0.0,,0,0.0,0.1
913123,1745295148285,0.1003,0.0,59,,0.05,0.08,1.1,2,-0,-0,1.11,1.11,100,12615,40.9,4.2,,12.4,0.894,97.0,,66.7,5,,,,,,,,,,,,0,0,0,0,0,0,0,0,0,0,0,0,0,0,0,0,,,,,,0.0,,,,,,,,,,,,,,,
913143,1745295148309,0.1006,,,,,,,,,,,,,,,,,,,,,,,,,,,,,,,,,,0,0,0,0,0,0,0,0,0,0,0,0,0,0,0,0,,,,,,,,,,,,,,,,,,,,,
913163,1745295148329,0.101,0.0,5,,-0.01,-0.09,1.15,3,-0,-1,1.15,1.15,100,12615,40.9,4.2,,11.73,0.862,97.0,,71.1,5,,,,,,,,,,,,0,0,0,0,0,0,0,0,0,0,0,0,0,0,0,0,,,,,,0.0,,,,,,,,,,,,,,,
913183,1745295148349,0.1013,,,,,,,,,,,,,,,,,,,,,,,,,,,,,,,,,,0,0,0,0,0,0,0,0,0,0,0,0,0,0,0,0,,,,,,,,,,,,,,,,,,,,,
913203,1745295148369,0.1016,0.0,73,,-0.03,0.14,1.1,1,-1,-2,1.11,1.15,97,13774,52.9,3.98,,11.89,0.83,97.0,,71.1,5,0,0,0,0,0.0,0.0,0.0,0.0,2.25,,,0,0,0,0,0,0,0,0,0,0,0,0,0,0,0,0,,0,,,,0.0,38.985771,-76.950233,0.21,46.1,34,3,0.8,0,0.0,-1,0.0,0.0,0,0.0,0.1016
913223,1745295148389,0.102,,,,,,,,,,,,,,,,,,,,,,,,,,,,,,,,,,0,0,0,0,0,0,0,0,0,0,0,0,0,0,0,0,,,,,,,,,,,,,,,,,,,,,
913243,1745295148409,0.1023,0.0,5,,-0.05,0.28,1.02,1,-1,-2,1.05,1.15,92,13416,65.3,4.57,,12.69,0.855,97.0,,71.1,5,,,,,,,,,,,,0,0,0,0,0,0,0,0,0,0,0,0,0,0,0,0,,,,,,0.0,,,,,,,,,,,,,,,
913263,1745295148429,0.1026,,,,,,,,,,,,,,,,,,,,,,,,,,,,,,,,,,0,0,0,0,0,0,0,0,0,0,0,0,0,0,0,0,,,,,,,,,,,,,,,,,,,,,
913283,1745295148449,0.103,0.0,79,,-0.09,0.25,0.97,3,-1,-3,1.0,1.15,87,13509,74.0,4.67,,12.85,1.23,97.0,,78.4,5,,,,,,,,,,,,0,0,0,0,0,0,0,0,0,0,0,0,0,0,0,0,,,,,,0.0,,,,,,,,,,,,,,,
913303,1745295148469,0.1033,,,,,,,,,,,,,,,,,,,,,,,0,0,0,0,0.0,0.0,0.0,0.0,2.24,,,0,0,0,0,0,0,0,0,0,0,0,0,0,0,0,0,,0,,,,,38.985771,-76.950233,0.2,46.1,34,3,0.8,0,0.0,-1,0.0,,0,0.0,0.1033
913323,1745295148489,0.1036,0.0,17,,-0.07,0.34,0.95,-1,-1,-3,1.01,1.15,88,13698,85.0,4.78,,12.85,1.23,97.0,,78.4,5,,,,,,,,,,,,0,0,0,0,0,0,0,0,0,0,0,0,0,0,0,0,,,,,,0.0,,,,,,,,,,,,,,,
913343,1745295148509,0.104,,,,,,,,,,,,,,,,,,,,,,,,,,,,,,,,,,0,0,0,0,0,0,0,0,0,0,0,0,0,0,0,0,,,,,,,,,,,,,,,,,,,,,
913363,1745295148529,0.1043,0.0,8,,-0.03,0.35,0.96,-3,-1,-2,1.02,1.15,89,13698,85.0,4.78,,13.0,1.215,97.0,,81.5,5,,,,,,,,,,,,0,0,0,0,0,0,0,0,0,0,0,0,0,0,0,0,,,,,,0.0,,,,,,,,,,,,,,,
913383,1745295148549,0.1046,,,,,,,,,,,,,,,,,,,,,,,,,,,,,,,,,,0,0,0,0,0,0,0,0,0,0,0,0,0,0,0,0,,,,,,,,,,,,,,,,,,,,,
913403,1745295148569,0.105,0.0,17,13.65,-0.03,0.61,0.94,-5,-0,-1,1.12,1.15,97,13282,89.3,4.76,15,13.43,1.237,97.0,180,81.5,5,0,0,0,0,0.0,0.0,0.0,0.0,2.25,0,1.0,0,0,0,0,0,0,0,0,0,0,0,0,0,0,0,0,0,0,1.0,0,0,0.0,38.985771,-76.950233,0.0,46.1,34,3,0.8,0,0.0,-1,0.0,0.0,0,0.0,0.105
913423,1745295148589,0.1053,,,,,,,,,,,,,,,,,,,,,,,,,,,,,,,,,,0,0,0,0,0,0,0,0,0,0,0,0,0,0,0,0,,,,,,,,,,,,,,,,,,,,,
913443,1745295148609,0.1056,0.0,14,,-0.07,0.33,1.05,-5,-1,-0,1.1,1.15,95,13863,96.9,4.8,,13.16,1.252,97.0,,81.5,5,,,,,,,,,,,,0,0,0,0,0,0,0,0,0,0,0,0,0,0,0,0,,,,,,0.0,,,,,,,,,,,,,,,
913463,1745295148629,0.106,,,,,,,,,,,,,,,,,,,,,,,,,,,,,,,,,,0,0,0,0,0,0,0,0,0,0,0,0,0,0,0,0,,,,,,,,,,,,,,,,,,,,,
913483,1745295148649,0.1063,0.0,22,,-0.03,0.24,1.01,-6,-1,-0,1.04,1.15,91,13051,99.3,4.72,,13.43,1.247,97.0,,80.5,5,,,,,,,,,,,,0,0,0,0,0,0,0,0,0,0,0,0,0,0,0,0,,,,,,0.0,,,,,,,,,,,,,,,
913503,1745295148669,0.1066,,,,,,,,,,,,,,,,,,,,,,,0,0,0,0,0.0,0.0,0.0,0.0,2.26,,,0,0,0,0,0,0,0,0,0,0,0,0,0,0,0,0,,0,,,,,38.985771,-76.950233,0.28,46.2,34,3,0.8,0,0.0,-1,0.0,,0,0.0,0.1066
913523,1745295148689,0.107,0.0,42,,-0.04,0.29,0.93,-8,-0,-0,0.97,1.15,85,13863,99.4,4.58,,13.43,1.247,97.0,,80.5,5,,,,,,,,,,,,0,0,0,0,0,0,0,0,0,0,0,0,0,0,0,0,,,,,,0.0,,,,,,,,,,,,,,,
913543,1745295148708,0.1073,,,,,,,,,,,,,,,,,,,,,,,,,,,,,,,,,,0,0,0,0,0,0,0,0,0,0,0,0,0,0,0,0,,,,,,,,,,,,,,,,,,,,,
913563,1745295148728,0.1076,0.0,5,,-0.08,0.19,0.9,-8,-0,2,0.92,1.15,80,13863,99.4,4.58,,13.35,1.248,97.0,,79.2,5,,,,,,,,,,,,0,0,0,0,0,0,0,0,0,0,0,0,0,0,0,0,,,,,,0.0,,,,,,,,,,,,,,,
913583,1745295148748,0.108,,,,,,,,,,,,,,,,,,,,,,,,,,,,,,,,,,0,0,0,0,0,0,0,0,0,0,0,0,0,0,0,0,,,,,,,,,,,,,,,,,,,,,
913603,1745295148768,0.1083,0.0,93,,-0.08,0.04,0.96,-7,-0,1,0.97,1.15,84,13246,99.4,4.65,,13.47,1.187,97.0,,79.2,5,0,0,0,0,0.0,0.0,0.0,0.0,2.26,,,0,0,0,0,0,0,0,0,0,0,0,0,0,0,0,0,,0,,,,0.0,38.985771,-76.950233,0.29,46.2,34,3,0.8,0,0.0,-1,0.0,0.0,0,0.0,0.1083
913623,1745295148788,0.1086,,,,,,,,,,,,,,,,,,,,,,,,,,,,,,,,,,0,0,0,0,0,0,0,0,0,0,0,0,0,0,0,0,,,,,,,,,,,,,,,,,,,,,
913643,1745295148808,0.109,0.0,17,,0.05,-0.12,1.01,-4,-0,-0,1.02,1.15,88,13333,99.4,4.69,,13.36,1.247,97.0,,79.2,5,,,,,,,,,,,,0,0,0,0,0,0,0,0,0,0,0,0,0,0,0,0,,,,,,0.0,,,,,,,,,,,,,,,
913663,1745295148828,0.1093,,,,,,,,,,,,,,,,,,,,,,,,,,,,,,,,,,0,0,0,0,0,0,0,0,0,0,0,0,0,0,0,0,,,,,,,,,,,,,,,,,,,,,
913683,1745295148848,0.1096,0.0,8,,0.14,-0.03,0.98,-4,0,0,0.99,1.15,86,13341,99.4,4.64,,13.09,1.248,97.0,,80.9,5,,,,,,,,,,,,0,0,0,0,0,0,0,0,0,0,0,0,0,0,0,0,,,,,,0.0,,,,,,,,,,,,,,,
913703,1745295148868,0.11,,,,,,,,,,,,,,,,,,,,,,,0,0,0,0,0.0,0.0,0.0,0.0,2.25,,,0,0,0,0,0,0,0,0,0,0,0,0,0,0,0,0,,0,,,,,38.985771,-76.950233,0.07,46.2,34,3,0.8,0,0.0,-1,0.0,,0,0.0,0.11
913723,1745295148888,0.1103,0.0,11,,0.24,-0.12,0.94,-2,1,0,0.98,1.15,85,12597,99.5,4.93,,13.09,1.248,97.0,,80.9,5,,,,,,,,,,,,0,0,0,0,0,0,0,0,0,0,0,0,0,0,0,0,,,,,,0.0,,,,,,,,,,,,,,,
913743,1745295148908,0.1106,,,,,,,,,,,,,,,,,,,,,,,,,,,,,,,,,,0,0,0,0,0,0,0,0,0,0,0,0,0,0,0,0,,,,,,,,,,,,,,,,,,,,,
913763,1745295148928,0.111,0.0,20,,0.28,-0.08,1.03,-2,1,1,1.07,1.15,93,12597,99.5,4.93,,13.36,1.144,97.0,,77.0,5,,,,,,,,,,,,0,0,0,0,0,0,0,0,0,0,0,0,0,0,0,0,,,,,,0.0,,,,,,,,,,,,,,,
913783,1745295148948,0.1113,,,,,,,,,,,,,,,,,,,,,,,,,,,,,,,,,,0,0,0,0,0,0,0,0,0,0,0,0,0,0,0,0,,,,,,,,,,,,,,,,,,,,,
913803,1745295148968,0.1116,0.0,34,,0.33,-0.02,1.13,-3,1,2,1.18,1.18,100,12103,99.5,5.26,,13.49,1.074,97.0,,77.0,5,0,0,0,0,0.0,0.0,0.0,0.0,2.25,,,0,0,0,0,0,0,0,0,0,0,0,0,0,0,0,0,,0,,,,0.0,38.985771,-76.950233,0.55,46.2,34,3,0.8,0,0.0,-1,0.0,0.0,0,0.0,0.1116
913823,1745295148988,0.112,,,,,,,,,,,,,,,,,,,,,,,,,,,,,,,,,,0,0,0,0,0,0,0,0,0,0,0,0,0,0,0,0,,,,,,,,,,,,,,,,,,,,,
913843,1745295149008,0.1123,0.0,28,,0.4,0.09,1.11,-3,1,1,1.18,1.18,100,11600,99.6,5.43,,13.6,1.034,97.0,,77.0,5,,,,,,,,,,,,0,0,0,0,0,0,0,0,0,0,0,0,0,0,0,0,,,,,,0.0,,,,,,,,,,,,,,,
913863,1745295149018,0.1126,,,,,,,,,,,,,,,,,,,,,,,,,,,,,,,,,,0,0,0,0,0,0,0,0,0,0,0,0,0,0,0,0,,,,,,,,,,,,,,,,,,,,,
913883,1745295149038,0.113,0.0,31,,0.46,0.05,1.03,-3,1,1,1.13,1.18,96,11196,99.6,5.48,,14.0,1.01,97.0,,73.9,5,,,,,,,,,,,,0,0,0,0,0,0,0,0,0,0,0,0,0,0,0,0,,,,,,0.0,,,,,,,,,,,,,,,
913903,1745295149058,0.1133,,,,,,,,,,,,,,,,,,,,,,,3,0,3,3,0.0,0.0,0.0,0.0,2.25,,,0,0,0,0,0,0,0,0,0,0,0,0,0,0,0,0,,0,,,,,38.985771,-76.950233,3.17,46.2,34,3,0.8,0,0.0,-1,0.0,,0,0.0,0.1133
913923,1745295149078,0.1136,0.0,31,,0.45,0.01,1.03,-3,1,1,1.13,1.18,96,10630,99.6,5.72,,14.0,1.01,97.0,,73.9,5,,,,,,,,,,,,0,0,0,0,0,0,0,0,0,0,0,0,0,0,0,0,,,,,,0.0,,,,,,,,,,,,,,,
913943,1745295149104,0.114,,,,,,,,,,,,,,,,,,,,,,,,,,,,,,,,,,0,0,0,0,0,0,0,0,0,0,0,0,0,0,0,0,,,,,,,,,,,,,,,,,,,,,
913963,1745295149124,0.1143,0.0,20,,0.46,-0.11,1.03,-3,0,1,1.13,1.18,96,10630,99.6,5.72,,14.1,0.954,97.0,,67.0,5,,,,,,,,,,,,0,0,0,0,0,0,0,0,0,0,0,0,0,0,0,0,,,,,,0.0,,,,,,,,,,,,,,,
913983,1745295149144,0.1146,,,,,,,,,,,,,,,,,,,,,,,,,,,,,,,,,,0,0,0,0,0,0,0,0,0,0,0,0,0,0,0,0,,,,,,,,,,,,,,,,,,,,,
914003,1745295149164,0.115,0.0,28,,0.49,-0.17,1.01,-2,0,-0,1.14,1.18,96,10013,99.6,6.07,,13.86,0.968,95.2,,67.0,5,5,0,17,17,0.0,0.0,0.0,0.0,2.25,,,0,0,0,0,0,0,0,0,0,0,0,0,0,0,0,0,,0,,,,0.0,38.985771,-76.950233,7.13,46.2,34,3,0.8,0,0.0,-1,0.0,0.0,0,0.0001,0.115
914023,1745295149184,0.1153,,,,,,,,,,,,,,,,,,,,,,,,,,,,,,,,,,0,0,0,0,0,0,0,0,0,0,0,0,0,0,0,0,,,,,,,,,,,,,,,,,,,,,
914043,1745295149204,0.1156,0.0,25,,0.52,-0.06,1.0,-3,-0,0,1.13,1.18,96,9349,99.6,6.01,,13.95,0.951,95.2,,67.0,5,,,,,,,,,,,,0,0,0,0,0,0,0,0,0,0,0,0,0,0,0,0,,,,,,0.0,,,,,,,,,,,,,,,
914063,1745295149224,0.116,,,,,,,,,,,,,,,,,,,,,,,,,,,,,,,,,,0,0,0,0,0,0,0,0,0,0,0,0,0,0,0,0,,,,,,,,,,,,,,,,,,,,,
914083,1745295149244,0.1163,0.0,22,,0.52,-0.1,0.99,-4,-0,0,1.12,1.18,95,9623,99.6,6.04,,13.96,0.926,95.2,,62.6,5,,,,,,,,,,,,0,0,0,0,0,0,0,0,0,0,0,0,0,0,0,0,,,,,,0.0,,,,,,,,,,,,,,,
914103,1745295149264,0.1166,,,,,,,,,,,,,,,,,,,,,,,6,0,38,39,0.0,0.0,0.0,0.0,2.25,,,0,0,0,0,0,0,0,0,0,0,0,0,0,0,0,0,,2,,,,,38.985771,-76.950233,10.15,46.2,34,3,0.8,0,0.0,-1,0.0,,0,0.0003,0.1166
914123,1745295149284,0.117,0.0,39,,0.55,-0.15,0.97,-4,-0,-1,1.12,1.18,95,9995,99.7,6.12,,13.96,0.926,95.2,,62.6,5,,,,,,,,,,,,0,0,0,0,0,0,0,0,0,0,0,0,0,0,0,0,,,,,,0.0,,,,,,,,,,,,,,,
914143,1745295149308,0.1173,,,,,,,,,,,,,,,,,,,,,,,,,,,,,,,,,,0,0,0,0,0,0,0,0,0,0,0,0,0,0,0,0,,,,,,,,,,,,,,,,,,,,,
914163,1745295149328,0.1176,0.0,22,,0.56,-0.19,0.99,-3,0,-1,1.15,1.18,98,9995,99.7,6.12,,13.91,0.905,95.2,,66.2,5,,,,,,,,,,,,0,0,0,0,0,0,0,0,0,0,0,0,0,0,0,0,,,,,,0.0,,,,,,,,,,,,,,,
914183,1745295149348,0.118,,,,,,,,,,,,,,,,,,,,,,,,,,,,,,,,,,0,0,0,0,0,0,0,0,0,0,0,0,0,0,0,0,,,,,,,,,,,,,,,,,,,,,
914203,1745295149368,0.1183,0.0,36,,0.59,-0.08,0.98,-4,0,-0,1.14,1.18,97,10160,99.6,6.06,,13.86,0.875,95.2,,66.2,5,8,0,41,39,0.0,228.0,0.0,0.0,2.25,,,0,0,0,0,0,0,0,0,0,0,0,0,0,0,0,0,,0,,,,0.0,38.985771,-76.950241,11.97,46.2,34,3,0.8,0,0.0,-1,0.0,0.0,0,0.0005,0.1183
914223,1745295149388,0.1186,,,,,,,,,,,,,,,,,,,,,,,,,,,,,,,,,,0,0,0,0,0,0,0,0,0,0,0,0,0,0,0,0,,,,,,,,,,,,,,,,,,,,,
914243,1745295149406,0.119,0.0,31,,0.59,-0.11,0.95,-2,-0,-0,1.13,1.18,96,10241,99.6,6.01,,13.88,0.864,95.2,,66.2,5,,,,,,,,,,,,0,0,0,0,0,0,0,0,0,0,0,0,0,0,0,0,,,,,,0.0,,,,,,,,,,,,,,,
914263,1745295149426,0.1193,,,,,,,,,,,,,,,,,,,,,,,,,,,,,,,,,,0,0,0,0,0,0,0,0,0,0,0,0,0,0,0,0,,,,,,,,,,,,,,,,,,,,,
914283,1745295149446,0.1196,0.0,22,,0.65,-0.21,0.98,-0,-0,-0,1.2,1.2,100,10359,99.6,5.94,,14.04,0.868,95.2,,66.5,5,,,,,,,,,,,,0,0,0,0,0,0,0,0,0,0,0,0,0,0,0,0,,,,,,0.0,,,,,,,,,,,,,,,
