"Interval"|"ms"|0|0|1,"Utc"|"ms"|0|0|1,"ElapsedTime"|"Min"|0.0|0.0|10,"FrontBP"|"psi"|-5.0|5.0|25,"SteerAng"|"Degrees"|-145|145|25,"Battery"|"Volts"|-5.0|20.0|1,"AccelX"|"G"|-3.0|3.0|25,"AccelY"|"G"|-3.0|3.0|25,"AccelZ"|"G"|-3.0|3.0|25,"Yaw"|"Deg/Sec"|-120|120|25,"Pitch"|"Deg/Sec"|-120|120|25,"Roll"|"Deg/Sec"|-120|120|25,"Gsum"|"G"|0.0|3.0|25,"GsumMax"|"G"|0.0|3.0|25,"GsumPct"|"%"|0|100|25,"RPM"|""|0|10000|25,"TPS"|"%"|0.0|100.0|25,"InjectorPW"|"ms"|0.0|100.0|25,"Baro"|"kPa"|0|105|1,"MAP"|"Psi"|0.0|255.0|25,"Lambda"|""|-2.0|2.0|25,"IAT"|"C"|0.0|200.0|25,"EngineTemp"|"C"|0|200|1,"EOP"|"PSI"|0.0|152.0|25,"EOT"|"F"|0|250|25,"WSFR"|"MPH"|0|150|10,"WSFL"|"MPH"|0|100|10,"WSRR"|"MPH"|0|100|10,"WSRL"|""|0|100|10,"TCSet"|"%"|0.0|100.0|10,"TCSlip"|"%"|0.0|100.0|10,"TCComp"|"deg"|0.0|50.0|10,"TCCut"|"%"|0.0|100.0|10,"Analog8"|""|0.0|5.0|10,"OilTemp"|"F"|0|300|1,"AA_On"|""|0.0|1.0|1,"ThermLF1"|"C"|0|400|50,"ThermLF2"|"C"|0|400|50,"ThermRR1"|"C"|0|400|50,"ThermRR2"|"C"|0|400|50,"ThermLF3"|"C"|0|400|50,"ThermLF4"|"C"|0|400|50,"ThermLF5"|"C"|0|400|50,"ThermLF6"|"C"|0|400|50,"ThermLF7"|"C"|0|400|50,"ThermLF8"|"C"|0|400|50,"ThermRR3"|"C"|0|400|50,"ThermRR4"|"C"|0|400|50,"ThermRR5"|"C"|0|400|50,"ThermRR6"|"C"|0|400|50,"ThermRR7"|"C"|0|400|50,"ThermRR8"|"C"|0|400|50,"AA_LowDrag"|""|0|1|1,"Gear"|""|1|6|10,"AA_On"|""|0.0|1.0|1,"AA_LowDrag"|""|0|1|1,"Fuel_Mix"|""|-10|10|1,"AA_Packages"|""|0.0|1000.0|25,"Latitude"|"Degrees"|-180.0|180.0|10,"Longitude"|"Degrees"|-180.0|180.0|10,"Speed"|"kph"|0.0|150.0|10,"Altitude"|"m"|0.0|4000.0|10,"GPSSats"|""|0|20|10,"GPSQual"|""|0|5|10,"GPSDOP"|""|0.0|20.0|10,"LapCount"|""|0|0|10,"LapTime"|"Min"|0.0|0.0|10,"Sector"|""|0|0|10,"SectorTime"|"Min"|0.0|0.0|10,"PredTime"|"Min"|0.0|0.0|5,"CurrentLap"|""|0|0|10,"Distance"|"mi"|0.0|0.0|10,"SessionTime"|"Min"|0.0|0.0|10
964623,1745295200837,0.0003,,,,,,,,,,,,,,,,,,,,,,,,,,,,,,,,,,0,0,0,0,0,0,0,0,0,0,0,0,0,0,0,0,,,,,,,,,,,,,,,,,,,,,
964643,1745295200857,0.0006,0.0,-76,,-0.04,0.08,0.97,-0,-0,0,0.98,0.98,100,3371,14.6,4.31,,13.75,1.139,97.0,,28.1,5,,,,,,,,,,,,0,0,0,0,0,0,0,0,0,0,0,0,0,0,0,0,,,,,,0.0,,,,,,,,,,,,,,,
964663,1745295200877,0.001,,,,,,,,,,,,,,,,,,,,,,,,,,,,,,,,,,0,0,0,0,0,0,0,0,0,0,0,0,0,0,0,0,,,,,,,,,,,,,,,,,,,,,
964683,1745295200897,0.0013,0.0,-83,,-0.07,-0.09,0.98,-0,-0,-0,0.99,0.99,100,3505,14.8,4.3,,13.64,1.138,97.0,,28.1,5,,,,,,,,,,,,0,0,0,0,0,0,0,0,0,0,0,0,0,0,0,0,,,,,,0.0,,,,,,,,,,,,,,,
964703,1745295200917,0.0016,,,,,,,,,,,,,,,,,,,,,,,0,0,0,0,0.0,0.0,0.0,0.0,2.25,,,0,0,0,0,0,0,0,0,0,0,0,0,0,0,0,0,,0,,,,,38.985786,-76.950722,0.09,45.3,34,3,0.8,0,0.0,-1,0.0,,0,0.0,0.0016
964723,1745295200937,0.002,0.0,-72,,-0.06,-0.1,1.0,-1,-0,0,1.0,1.0,100,3515,14.9,4.21,,13.65,1.123,97.0,,29.4,5,,,,,,,,,,,,0,0,0,0,0,0,0,0,0,0,0,0,0,0,0,0,,,,,,0.0,,,,,,,,,,,,,,,
964743,1745295200957,0.0023,,,,,,,,,,,,,,,,,,,,,,,,,,,,,,,,,,0,0,0,0,0,0,0,0,0,0,0,0,0,0,0,0,,,,,,,,,,,,,,,,,,,,,
964763,1745295200977,0.0026,0.0,-76,,-0.06,-0.03,1.0,-0,-0,0,1.0,1.0,100,3604,14.9,4.22,,13.65,1.123,97.0,,29.4,5,,,,,,,,,,,,0,0,0,0,0,0,0,0,0,0,0,0,0,0,0,0,,,,,,0.0,,,,,,,,,,,,,,,
964783,1745295200997,0.003,,,,,,,,,,,,,,,,,,,,,,,,,,,,,,,,,,0,0,0,0,0,0,0,0,0,0,0,0,0,0,0,0,,,,,,,,,,,,,,,,,,,,,
964803,1745295201009,0.0033,0.0,-83,,-0.05,0.01,0.97,-0,-0,0,0.97,1.0,97,3604,14.9,4.22,,13.56,1.113,97.0,,30.4,5,0,0,0,0,0.0,0.0,0.0,0.0,2.25,,,0,0,0,0,0,0,0,0,0,0,0,0,0,0,0,0,,0,,,,0.0,38.985786,-76.950722,0.11,45.3,34,3,0.8,0,0.0,-1,0.0,0.0,0,0.0,0.0033
964823,1745295201029,0.0036,,,,,,,,,,,,,,,,,,,,,,,,,,,,,,,,,,0,0,0,0,0,0,0,0,0,0,0,0,0,0,0,0,,,,,,,,,,,,,,,,,,,,,
964843,1745295201049,0.004,0.0,-68,,-0.07,-0.05,0.97,0,-0,-0,0.97,1.0,97,3552,14.9,4.17,,13.6,1.114,97.0,,30.4,5,,,,,,,,,,,,0,0,0,0,0,0,0,0,0,0,0,0,0,0,0,0,,,,,,0.0,,,,,,,,,,,,,,,
964863,1745295201069,0.0043,,,,,,,,,,,,,,,,,,,,,,,,,,,,,,,,,,0,0,0,0,0,0,0,0,0,0,0,0,0,0,0,0,,,,,,,,,,,,,,,,,,,,,
964883,1745295201089,0.0046,0.0,-83,,-0.08,-0.08,1.0,0,-0,0,1.01,1.01,100,3625,14.9,4.21,,13.56,1.117,97.0,,30.4,5,,,,,,,,,,,,0,0,0,0,0,0,0,0,0,0,0,0,0,0,0,0,,,,,,0.0,,,,,,,,,,,,,,,
964903,1745295201109,0.005,,,,,,,,,,,,,,,,,,,,,,,0,0,0,0,0.0,0.0,0.0,0.0,2.26,,,0,0,0,0,0,0,0,0,0,0,0,0,0,0,0,0,,0,,,,,38.985786,-76.950722,0.19,45.3,34,3,0.8,0,0.0,-1,0.0,,0,0.0,0.005
964923,1745295201129,0.0053,0.0,-83,,-0.07,0.01,1.01,-0,-0,0,1.01,1.01,100,3542,14.9,4.17,,13.56,1.117,97.0,,30.6,5,,,,,,,,,,,,0,0,0,0,0,0,0,0,0,0,0,0,0,0,0,0,,,,,,0.0,,,,,,,,,,,,,,,
964943,1745295201149,0.0056,,,,,,,,,,,,,,,,,,,,,,,,,,,,,,,,,,0,0,0,0,0,0,0,0,0,0,0,0,0,0,0,0,,,,,,,,,,,,,,,,,,,,,
964963,1745295201169,0.006,0.0,-91,,-0.06,0.02,1.01,-0,-0,0,1.01,1.01,100,3607,14.8,4.23,,13.53,1.112,97.0,,30.6,5,,,,,,,,,,,,0,0,0,0,0,0,0,0,0,0,0,0,0,0,0,0,,,,,,0.0,,,,,,,,,,,,,,,
964983,1745295201189,0.0063,,,,,,,,,,,,,,,,,,,,,,,,,,,,,,,,,,0,0,0,0,0,0,0,0,0,0,0,0,0,0,0,0,,,,,,,,,,,,,,,,,,,,,
965003,1745295201217,0.0066,0.0,-91,,-0.05,-0.02,0.98,1,-0,-0,0.98,1.01,97,3607,14.8,4.23,,13.59,1.117,97.0,,30.5,5,0,0,0,0,0.0,0.0,0.0,0.0,2.25,,,0,0,0,0,0,0,0,0,0,0,0,0,0,0,0,0,,0,,,,0.0,38.985786,-76.950722,0.37,45.3,34,3,0.8,0,0.0,-1,0.0,0.0,0,0.0,0.0066
965023,1745295201237,0.007,,,,,,,,,,,,,,,,,,,,,,,,,,,,,,,,,,0,0,0,0,0,0,0,0,0,0,0,0,0,0,0,0,,,,,,,,,,,,,,,,,,,,,
965043,1745295201257,0.0073,0.0,-80,,-0.05,0.0,1.07,-1,-0,1,1.07,1.07,100,3514,14.7,4.17,,13.65,1.121,97.0,,30.5,5,,,,,,,,,,,,0,0,0,0,0,0,0,0,0,0,0,0,0,0,0,0,,,,,,0.0,,,,,,,,,,,,,,,
965063,1745295201277,0.0076,,,,,,,,,,,,,,,,,,,,,,,,,,,,,,,,,,0,0,0,0,0,0,0,0,0,0,0,0,0,0,0,0,,,,,,,,,,,,,,,,,,,,,
965083,1745295201297,0.008,0.0,-80,,-0.02,0.14,1.01,-1,-0,1,1.02,1.07,95,3468,14.8,4.29,,13.67,1.123,97.0,,30.5,5,,,,,,,,,,,,0,0,0,0,0,0,0,0,0,0,0,0,0,0,0,0,,,,,,0.0,,,,,,,,,,,,,,,
965103,1745295201317,0.0083,,,,,,,,,,,,,,,,,,,,,,,0,0,0,0,0.0,0.0,0.0,0.0,2.26,,,0,0,0,0,0,0,0,0,0,0,0,0,0,0,0,0,,0,,,,,38.985786,-76.950722,0.5,45.3,34,3,0.8,0,0.0,-1,0.0,,0,0.0,0.0083
965123,1745295201337,0.0086,0.0,-72,,-0.03,0.03,1.08,-1,-0,1,1.08,1.08,100,3231,14.9,4.39,,13.72,1.139,97.0,,29.1,5,,,,,,,,,,,,0,0,0,0,0,0,0,0,0,0,0,0,0,0,0,0,,,,,,0.0,,,,,,,,,,,,,,,
965143,1745295201357,0.009,,,,,,,,,,,,,,,,,,,,,,,,,,,,,,,,,,0,0,0,0,0,0,0,0,0,0,0,0,0,0,0,0,,,,,,,,,,,,,,,,,,,,,
965163,1745295201377,0.0093,0.0,-76,,-0.04,0.0,1.05,-0,-0,0,1.05,1.08,97,3077,15.1,4.5,,13.72,1.139,97.0,,29.1,5,,,,,,,,,,,,0,0,0,0,0,0,0,0,0,0,0,0,0,0,0,0,,,,,,0.0,,,,,,,,,,,,,,,
965183,1745295201397,0.0096,,,,,,,,,,,,,,,,,,,,,,,,,,,,,,,,,,0,0,0,0,0,0,0,0,0,0,0,0,0,0,0,0,,,,,,,,,,,,,,,,,,,,,
965203,1745295201419,0.01,0.0,-68,,-0.04,0.01,0.99,-0,-0,-0,0.99,1.08,91,3077,15.1,4.5,,13.82,1.137,97.0,,26.2,5,0,0,0,0,0.0,0.0,0.0,0.0,2.25,,,0,0,0,0,0,0,0,0,0,0,0,0,0,0,0,0,,0,,,,0.0,38.985786,-76.950722,0.78,45.3,34,3,0.8,0,0.0,-1,0.0,0.0,0,0.0,0.01
965223,1745295201439,0.0103,,,,,,,,,,,,,,,,,,,,,,,,,,,,,,,,,,0,0,0,0,0,0,0,0,0,0,0,0,0,0,0,0,,,,,,,,,,,,,,,,,,,,,
965243,1745295201459,0.0106,0.0,-57,,-0.04,0.01,0.96,0,0,-0,0.96,1.08,89,3009,15.3,4.68,,13.92,1.116,97.0,,26.2,5,,,,,,,,,,,,0,0,0,0,0,0,0,0,0,0,0,0,0,0,0,0,,,,,,0.0,,,,,,,,,,,,,,,
965263,1745295201479,0.011,,,,,,,,,,,,,,,,,,,,,,,,,,,,,,,,,,0,0,0,0,0,0,0,0,0,0,0,0,0,0,0,0,,,,,,,,,,,,,,,,,,,,,
965283,1745295201499,0.0113,0.0,-61,,-0.05,-0.01,1.0,0,0,-0,1.0,1.08,93,2964,15.4,4.67,,13.9,1.101,97.0,,26.2,5,,,,,,,,,,,,0,0,0,0,0,0,0,0,0,0,0,0,0,0,0,0,,,,,,0.0,,,,,,,,,,,,,,,
965303,1745295201517,0.0116,,,,,,,,,,,,,,,,,,,,,,,0,0,0,0,0.0,0.0,0.0,0.0,2.25,,,0,0,0,0,0,0,0,0,0,0,0,0,0,0,0,0,,0,,,,,38.985786,-76.950722,1.18,45.3,34,3,0.8,0,0.0,-1,0.0,,0,0.0,0.0116
965323,1745295201537,0.012,0.0,-76,,-0.04,-0.02,1.05,-0,0,0,1.05,1.08,97,2892,16.2,4.66,,13.99,1.099,97.0,,24.5,5,,,,,,,,,,,,0,0,0,0,0,0,0,0,0,0,0,0,0,0,0,0,,,,,,0.0,,,,,,,,,,,,,,,
965343,1745295201557,0.0123,,,,,,,,,,,,,,,,,,,,,,,,,,,,,,,,,,0,0,0,0,0,0,0,0,0,0,0,0,0,0,0,0,,,,,,,,,,,,,,,,,,,,,
965363,1745295201577,0.0126,0.0,-83,,-0.02,-0.03,1.03,-0,-0,0,1.03,1.08,95,2724,20.1,4.83,,13.99,1.099,97.0,,24.5,5,,,,,,,,,,,,0,0,0,0,0,0,0,0,0,0,0,0,0,0,0,0,,,,,,0.0,,,,,,,,,,,,,,,
965383,1745295201597,0.013,,,,,,,,,,,,,,,,,,,,,,,,,,,,,,,,,,0,0,0,0,0,0,0,0,0,0,0,0,0,0,0,0,,,,,,,,,,,,,,,,,,,,,
965403,1745295201617,0.0133,0.0,-64,13.57,-0.01,-0.03,0.99,0,-0,-0,0.99,1.08,92,2724,20.1,4.83,15,14.14,1.097,97.0,182,23.4,5,0,0,0,0,0.0,0.0,0.0,0.0,2.25,0,1.0,0,0,0,0,0,0,0,0,0,0,0,0,0,0,0,0,0,0,1.0,0,0,0.0,38.985786,-76.950722,1.51,45.3,34,3,0.8,0,0.0,-1,0.0,0.0,0,0.0,0.0133
965423,1745295201637,0.0136,,,,,,,,,,,,,,,,,,,,,,,,,,,,,,,,,,0,0,0,0,0,0,0,0,0,0,0,0,0,0,0,0,,,,,,,,,,,,,,,,,,,,,
965443,1745295201657,0.014,0.0,-64,,-0.02,-0.03,1.02,0,-0,-0,1.02,1.08,94,2687,22.8,4.61,,14.26,1.071,97.0,,23.4,5,,,,,,,,,,,,0,0,0,0,0,0,0,0,0,0,0,0,0,0,0,0,,,,,,0.0,,,,,,,,,,,,,,,
965463,1745295201677,0.0143,,,,,,,,,,,,,,,,,,,,,,,,,,,,,,,,,,0,0,0,0,0,0,0,0,0,0,0,0,0,0,0,0,,,,,,,,,,,,,,,,,,,,,
965483,1745295201697,0.0146,0.0,-64,,-0.01,-0.01,0.98,0,-0,-0,0.98,1.08,91,2639,24.9,4.4,,14.3,1.049,97.0,,23.4,5,,,,,,,,,,,,0,0,0,0,0,0,0,0,0,0,0,0,0,0,0,0,,,,,,0.0,,,,,,,,,,,,,,,
965503,1745295201717,0.015,,,,,,,,,,,,,,,,,,,,,,,1,0,1,1,0.0,0.0,0.0,0.0,2.25,,,0,0,0,0,0,0,0,0,0,0,0,0,0,0,0,0,,0,,,,,38.985786,-76.950722,1.99,45.3,34,3,0.8,0,0.0,-1,0.0,,0,0.0,0.015
965523,1745295201737,0.0153,0.0,-83,,0.01,-0.04,1.02,0,-0,0,1.02,1.08,94,2581,25.0,4.41,,14.34,1.043,97.0,,22.2,5,,,,,,,,,,,,0,0,0,0,0,0,0,0,0,0,0,0,0,0,0,0,,,,,,0.0,,,,,,,,,,,,,,,
965543,1745295201757,0.0156,,,,,,,,,,,,,,,,,,,,,,,,,,,,,,,,,,0,0,0,0,0,0,0,0,0,0,0,0,0,0,0,0,,,,,,,,,,,,,,,,,,,,,
965563,1745295201777,0.016,0.0,-72,,0.01,-0.03,0.99,0,-0,-0,0.99,1.08,91,2691,25.1,4.45,,14.34,1.043,97.0,,22.2,5,,,,,,,,,,,,0,0,0,0,0,0,0,0,0,0,0,0,0,0,0,0,,,,,,0.0,,,,,,,,,,,,,,,
965583,1745295201797,0.0163,,,,,,,,,,,,,,,,,,,,,,,,,,,,,,,,,,0,0,0,0,0,0,0,0,0,0,0,0,0,0,0,0,,,,,,,,,,,,,,,,,,,,,
965603,1745295201816,0.0166,0.0,-68,,0.02,-0.04,1.02,-0,-0,0,1.02,1.08,94,2691,25.1,4.45,,14.26,1.05,97.0,,22.1,5,1,0,1,1,0.0,0.0,0.0,0.0,2.26,,,0,0,0,0,0,0,0,0,0,0,0,0,0,0,0,0,,0,,,,0.0,38.985786,-76.950729,2.32,45.3,34,3,0.8,0,0.0,-1,0.0,0.0,0,0.0,0.0166
965623,1745295201836,0.017,,,,,,,,,,,,,,,,,,,,,,,,,,,,,,,,,,0,0,0,0,0,0,0,0,0,0,0,0,0,0,0,0,,,,,,,,,,,,,,,,,,,,,
965643,1745295201856,0.0173,0.0,-57,,0.02,-0.04,0.99,0,-0,0,0.99,1.08,92,2727,25.2,4.44,,14.24,1.06,97.0,,22.1,5,,,,,,,,,,,,0,0,0,0,0,0,0,0,0,0,0,0,0,0,0,0,,,,,,0.0,,,,,,,,,,,,,,,
965663,1745295201876,0.0176,,,,,,,,,,,,,,,,,,,,,,,,,,,,,,,,,,0,0,0,0,0,0,0,0,0,0,0,0,0,0,0,0,,,,,,,,,,,,,,,,,,,,,
965683,1745295201896,0.018,0.0,-64,,0.02,-0.06,1.01,0,-0,-0,1.01,1.08,94,2726,25.3,4.43,,14.23,1.07,97.0,,22.1,5,,,,,,,,,,,,0,0,0,0,0,0,0,0,0,0,0,0,0,0,0,0,,,,,,0.0,,,,,,,,,,,,,,,
965703,1745295201918,0.0183,,,,,,,,,,,,,,,,,,,,,,,1,0,1,1,0.0,0.0,0.0,0.0,2.25,,,0,0,0,0,0,0,0,0,0,0,0,0,0,0,0,0,,0,,,,,38.985786,-76.950729,2.78,45.3,34,3,0.8,0,0.0,-1,0.0,,0,0.0,0.0183
965723,1745295201938,0.0187,0.0,-68,,0.02,-0.05,1.0,0,-0,0,1.01,1.08,93,2729,25.5,4.45,,14.27,1.09,97.0,,22.3,5,,,,,,,,,,,,0,0,0,0,0,0,0,0,0,0,0,0,0,0,0,0,,,,,,0.0,,,,,,,,,,,,,,,
965743,1745295201958,0.019,,,,,,,,,,,,,,,,,,,,,,,,,,,,,,,,,,0,0,0,0,0,0,0,0,0,0,0,0,0,0,0,0,,,,,,,,,,,,,,,,,,,,,
965763,1745295201978,0.0193,0.0,-72,,0.03,-0.06,1.0,1,-0,-0,1.0,1.08,92,2729,25.5,4.45,,14.27,1.09,97.0,,22.3,5,,,,,,,,,,,,0,0,0,0,0,0,0,0,0,0,0,0,0,0,0,0,,,,,,0.0,,,,,,,,,,,,,,,
965783,1745295201998,0.0196,,,,,,,,,,,,,,,,,,,,,,,,,,,,,,,,,,0,0,0,0,0,0,0,0,0,0,0,0,0,0,0,0,,,,,,,,,,,,,,,,,,,,,
965803,1745295202006,0.02,0.0,-64,,0.02,-0.08,1.02,1,-0,-0,1.02,1.08,94,2636,25.5,4.4,,14.26,1.097,97.0,,22.4,5,2,0,2,2,0.0,0.0,0.0,0.0,2.25,,,0,0,0,0,0,0,0,0,0,0,0,0,0,0,0,0,,0,,,,0.0,38.985786,-76.950729,3.05,45.3,34,3,0.8,0,0.0,-1,0.0,0.0,0,0.0001,0.02
965823,1745295202026,0.0203,,,,,,,,,,,,,,,,,,,,,,,,,,,,,,,,,,0,0,0,0,0,0,0,0,0,0,0,0,0,0,0,0,,,,,,,,,,,,,,,,,,,,,
965843,1745295202046,0.0206,0.0,-68,,0.03,-0.06,0.98,1,-0,-0,0.98,1.08,91,2648,25.5,4.41,,14.3,1.112,97.0,,22.4,5,,,,,,,,,,,,0,0,0,0,0,0,0,0,0,0,0,0,0,0,0,0,,,,,,0.0,,,,,,,,,,,,,,,
965863,1745295202066,0.021,,,,,,,,,,,,,,,,,,,,,,,,,,,,,,,,,,0,0,0,0,0,0,0,0,0,0,0,0,0,0,0,0,,,,,,,,,,,,,,,,,,,,,
965883,1745295202086,0.0213,0.0,-57,,0.04,-0.06,1.02,0,-0,0,1.02,1.08,94,2579,25.5,4.41,,14.32,1.114,97.0,,22.4,5,,,,,,,,,,,,0,0,0,0,0,0,0,0,0,0,0,0,0,0,0,0,,,,,,0.0,,,,,,,,,,,,,,,
965903,1745295202118,0.0216,,,,,,,,,,,,,,,,,,,,,,,2,0,2,2,0.0,0.0,0.0,0.0,2.25,,,0,0,0,0,0,0,0,0,0,0,0,0,0,0,0,0,,0,,,,,38.985786,-76.950729,3.52,45.3,34,3,0.8,0,0.0,-1,0.0,,0,0.0001,0.0216
965923,1745295202138,0.022,0.0,-61,,0.04,-0.06,1.0,1,-0,-0,1.0,1.08,93,2527,25.5,4.44,,14.32,1.115,97.0,,22.1,5,,,,,,,,,,,,0,0,0,0,0,0,0,0,0,0,0,0,0,0,0,0,,,,,,0.0,,,,,,,,,,,,,,,
965943,1745295202158,0.0223,,,,,,,,,,,,,,,,,,,,,,,,,,,,,,,,,,0,0,0,0,0,0,0,0,0,0,0,0,0,0,0,0,,,,,,,,,,,,,,,,,,,,,
965963,1745295202178,0.0226,0.0,-76,,0.05,-0.05,0.98,1,-0,0,0.98,1.08,91,2469,25.4,4.45,,14.32,1.115,97.0,,22.1,5,,,,,,,,,,,,0,0,0,0,0,0,0,0,0,0,0,0,0,0,0,0,,,,,,0.0,,,,,,,,,,,,,,,
965983,1745295202198,0.023,,,,,,,,,,,,,,,,,,,,,,,,,,,,,,,,,,0,0,0,0,0,0,0,0,0,0,0,0,0,0,0,0,,,,,,,,,,,,,,,,,,,,,
966003,1745295202214,0.0233,0.0,-72,,0.04,-0.03,0.98,0,-0,0,0.98,1.08,91,2469,25.4,4.45,,14.34,1.125,97.0,,21.3,5,2,0,2,2,0.0,0.0,0.0,0.0,2.26,,,0,0,0,0,0,0,0,0,0,0,0,0,0,0,0,0,,0,,,,0.0,38.985786,-76.950729,4.0,45.3,34,3,0.8,0,0.0,-1,0.0,0.0,0,0.0002,0.0233
966023,1745295202234,0.0236,,,,,,,,,,,,,,,,,,,,,,,,,,,,,,,,,,0,0,0,0,0,0,0,0,0,0,0,0,0,0,0,0,,,,,,,,,,,,,,,,,,,,,
966043,1745295202254,0.024,0.0,-57,,0.04,-0.04,0.97,1,-0,-0,0.97,1.08,89,2350,25.4,4.48,,14.36,1.129,97.0,,21.3,5,,,,,,,,,,,,0,0,0,0,0,0,0,0,0,0,0,0,0,0,0,0,,,,,,0.0,,,,,,,,,,,,,,,
966063,1745295202274,0.0243,,,,,,,,,,,,,,,,,,,,,,,,,,,,,,,,,,0,0,0,0,0,0,0,0,0,0,0,0,0,0,0,0,,,,,,,,,,,,,,,,,,,,,
966083,1745295202294,0.0246,0.0,-57,,0.05,-0.06,0.97,1,-0,-0,0.97,1.08,90,2209,25.4,4.52,,14.39,1.128,97.0,,21.3,5,,,,,,,,,,,,0,0,0,0,0,0,0,0,0,0,0,0,0,0,0,0,,,,,,0.0,,,,,,,,,,,,,,,
966103,1745295202318,0.025,,,,,,,,,,,,,,,,,,,,,,,3,0,3,2,0.0,0.0,0.0,0.0,2.26,,,0,0,0,0,0,0,0,0,0,0,0,0,0,0,0,0,,0,,,,,38.985786,-76.950729,4.52,45.3,34,3,0.8,0,0.0,-1,0.0,,0,0.0003,0.025
966123,1745295202338,0.0253,0.0,-61,,0.04,-0.04,0.97,1,-0,-0,0.97,1.08,90,2071,25.4,4.54,,14.47,1.138,97.0,,19.1,5,,,,,,,,,,,,0,0,0,0,0,0,0,0,0,0,0,0,0,0,0,0,,,,,,0.0,,,,,,,,,,,,,,,
966143,1745295202358,0.0256,,,,,,,,,,,,,,,,,,,,,,,,,,,,,,,,,,0,0,0,0,0,0,0,0,0,0,0,0,0,0,0,0,,,,,,,,,,,,,,,,,,,,,
966163,1745295202378,0.026,0.0,-76,,0.05,-0.03,0.99,1,-0,0,0.99,1.08,91,2063,25.5,4.62,,14.47,1.138,97.0,,19.1,5,,,,,,,,,,,,0,0,0,0,0,0,0,0,0,0,0,0,0,0,0,0,,,,,,0.0,,,,,,,,,,,,,,,
966183,1745295202398,0.0263,,,,,,,,,,,,,,,,,,,,,,,,,,,,,,,,,,0,0,0,0,0,0,0,0,0,0,0,0,0,0,0,0,,,,,,,,,,,,,,,,,,,,,
966203,1745295202418,0.0266,0.0,-68,,0.04,-0.03,0.99,1,-0,0,1.0,1.08,92,2063,25.5,4.62,,14.43,1.149,97.0,,16.9,5,3,0,3,3,0.0,0.0,0.0,0.0,2.26,,,0,0,0,0,0,0,0,0,0,0,0,0,0,0,0,0,,0,,,,0.0,38.985786,-76.950737,5.09,45.3,34,3,0.8,0,0.0,-1,0.0,0.0,0,0.0004,0.0266
966223,1745295202438,0.027,,,,,,,,,,,,,,,,,,,,,,,,,,,,,,,,,,0,0,0,0,0,0,0,0,0,0,0,0,0,0,0,0,,,,,,,,,,,,,,,,,,,,,
966243,1745295202458,0.0273,0.0,-68,,0.04,-0.03,0.99,1,-0,0,0.99,1.08,91,1827,25.5,4.45,,14.47,1.127,97.0,,16.9,5,,,,,,,,,,,,0,0,0,0,0,0,0,0,0,0,0,0,0,0,0,0,,,,,,0.0,,,,,,,,,,,,,,,
966263,1745295202478,0.0276,,,,,,,,,,,,,,,,,,,,,,,,,,,,,,,,,,0,0,0,0,0,0,0,0,0,0,0,0,0,0,0,0,,,,,,,,,,,,,,,,,,,,,
966283,1745295202498,0.028,0.0,-61,,0.03,-0.04,0.98,1,-0,-0,0.98,1.08,90,1520,25.5,4.45,,14.4,1.124,97.0,,16.9,5,,,,,,,,,,,,0,0,0,0,0,0,0,0,0,0,0,0,0,0,0,0,,,,,,0.0,,,,,,,,,,,,,,,
966303,1745295202518,0.0283,,,,,,,,,,,,,,,,,,,,,,,3,0,3,3,0.0,0.0,0.0,0.0,2.25,,,0,0,0,0,0,0,0,0,0,0,0,0,0,0,0,0,,0,,,,,38.985786,-76.950737,5.53,45.3,34,3,0.8,0,0.0,-1,0.0,,0,0.0004,0.0283
966323,1745295202538,0.0286,0.0,-53,,0.01,-0.03,0.98,1,-0,-0,0.98,1.08,90,1449,25.5,4.13,,14.47,1.127,97.0,,14.5,5,,,,,,,,,,,,0,0,0,0,0,0,0,0,0,0,0,0,0,0,0,0,,,,,,0.0,,,,,,,,,,,,,,,
966343,1745295202558,0.029,,,,,,,,,,,,,,,,,,,,,,,,,,,,,,,,,,0,0,0,0,0,0,0,0,0,0,0,0,0,0,0,0,,,,,,,,,,,,,,,,,,,,,
966363,1745295202578,0.0293,0.0,-83,,0.01,-0.03,0.98,1,-0,-0,0.98,1.08,91,1033,25.5,4.06,,14.47,1.127,97.0,,14.5,5,,,,,,,,,,,,0,0,0,0,0,0,0,0,0,0,0,0,0,0,0,0,,,,,,0.0,,,,,,,,,,,,,,,
966383,1745295202598,0.0296,,,,,,,,,,,,,,,,,,,,,,,,,,,,,,,,,,0,0,0,0,0,0,0,0,0,0,0,0,0,0,0,0,,,,,,,,,,,,,,,,,,,,,
966403,1745295202618,0.03,0.0,-64,13.38,0.01,-0.03,0.99,1,-0,0,0.99,1.08,92,1033,25.5,4.06,15,14.48,1.115,97.0,178,12.1,5,4,0,4,4,0.0,0.0,0.0,0.0,2.26,0,1.0,0,0,0,0,0,0,0,0,0,0,0,0,0,0,0,0,0,0,1.0,0,0,0.0,38.985786,-76.950737,5.97,45.3,34,3,0.8,0,0.0,-1,0.0,0.0,0,0.0005,0.03
966423,1745295202638,0.0303,,,,,,,,,,,,,,,,,,,,,,,,,,,,,,,,,,0,0,0,0,0,0,0,0,0,0,0,0,0,0,0,0,,,,,,,,,,,,,,,,,,,,,
966443,1745295202658,0.0306,0.0,-61,,-0.0,-0.03,0.99,1,-0,-0,0.99,1.08,92,1202,30.3,3.57,,14.55,1.129,97.0,,12.1,5,,,,,,,,,,,,0,0,0,0,0,0,0,0,0,0,0,0,0,0,0,0,,,,,,0.0,,,,,,,,,,,,,,,
966463,1745295202678,0.031,,,,,,,,,,,,,,,,,,,,,,,,,,,,,,,,,,0,0,0,0,0,0,0,0,0,0,0,0,0,0,0,0,,,,,,,,,,,,,,,,,,,,,
966483,1745295202698,0.0313,0.0,-57,,-0.02,-0.01,0.98,1,-0,-0,0.98,1.08,91,1202,30.3,3.57,,14.46,1.142,97.0,,12.1,5,,,,,,,,,,,,0,0,0,0,0,0,0,0,0,0,0,0,0,0,0,0,,,,,,0.0,,,,,,,,,,,,,,,
966503,1745295202718,0.0316,,,,,,,,,,,,,,,,,,,,,,,4,0,4,4,0.0,0.0,0.0,0.0,2.26,,,0,0,0,0,0,0,0,0,0,0,0,0,0,0,0,0,,0,,,,,38.985786,-76.950737,6.19,45.3,34,3,0.8,0,0.0,-1,0.0,,0,0.0006,0.0316
966523,1745295202738,0.032,0.0,-68,,-0.03,-0.04,0.98,2,-0,-0,0.98,1.08,91,792,2.4,3.17,,14.39,1.124,97.0,,10.2,5,,,,,,,,,,,,0,0,0,0,0,0,0,0,0,0,0,0,0,0,0,0,,,,,,0.0,,,,,,,,,,,,,,,
966543,1745295202758,0.0323,,,,,,,,,,,,,,,,,,,,,,,,,,,,,,,,,,0,0,0,0,0,0,0,0,0,0,0,0,0,0,0,0,,,,,,,,,,,,,,,,,,,,,
966563,1745295202778,0.0326,0.13,-80,,-0.05,-0.01,0.98,1,-0,-0,0.98,1.08,91,1180,0.0,3.59,,14.39,1.124,97.0,,10.2,5,,,,,,,,,,,,0,0,0,0,0,0,0,0,0,0,0,0,0,0,0,0,,,,,,0.0,,,,,,,,,,,,,,,
966583,1745295202798,0.033,,,,,,,,,,,,,,,,,,,,,,,,,,,,,,,,,,0,0,0,0,0,0,0,0,0,0,0,0,0,0,0,0,,,,,,,,,,,,,,,,,,,,,
966603,1745295202817,0.0333,13.95,-83,,-0.08,0.0,0.99,2,-0,-0,0.99,1.08,92,1180,0.0,3.59,,14.4,1.148,97.0,,10.8,5,4,0,4,4,0.0,0.0,0.0,0.0,2.25,,,0,0,0,0,0,0,0,0,0,0,0,0,0,0,0,0,,0,,,,0.0,38.985786,-76.950737,6.1,45.3,34,3,0.8,0,0.0,-1,0.0,0.0,0,0.0007,0.0333
966623,1745295202837,0.0336,,,,,,,,,,,,,,,,,,,,,,,,,,,,,,,,,,0,0,0,0,0,0,0,0,0,0,0,0,0,0,0,0,,,,,,,,,,,,,,,,,,,,,
966643,1745295202857,0.034,31.55,-83,,-0.11,0.0,0.99,2,-1,-0,1.0,1.08,92,1057,0.0,3.56,,14.54,1.117,97.0,,10.8,5,,,,,,,,,,,,0,0,0,0,0,0,0,0,0,0,0,0,0,0,0,0,,,,,,0.0,,,,,,,,,,,,,,,
966663,1745295202877,0.0343,,,,,,,,,,,,,,,,,,,,,,,,,,,,,,,,,,0,0,0,0,0,0,0,0,0,0,0,0,0,0,0,0,,,,,,,,,,,,,,,,,,,,,
966683,1745295202897,0.0347,47.89,-72,,-0.15,0.0,0.99,1,-1,-0,1.0,1.08,93,1057,10.9,3.56,,14.56,1.092,97.0,,10.8,5,,,,,,,,,,,,0,0,0,0,0,0,0,0,0,0,0,0,0,0,0,0,,,,,,0.0,,,,,,,,,,,,,,,
966703,1745295202917,0.035,,,,,,,,,,,,,,,,,,,,,,,4,0,4,4,0.0,0.0,0.0,0.0,2.25,,,0,0,0,0,0,0,0,0,0,0,0,0,0,0,0,0,,0,,,,,38.985786,-76.950737,5.56,45.3,34,3,0.8,0,0.0,-1,0.0,,0,0.0009,0.035
966723,1745295202937,0.0353,61.71,-83,,-0.18,0.0,0.99,1,-1,-0,1.01,1.08,93,1057,18.8,3.56,,14.55,1.072,97.0,,8.5,5,,,,,,,,,,,,0,0,0,0,0,0,0,0,0,0,0,0,0,0,0,0,,,,,,0.0,,,,,,,,,,,,,,,
966743,1745295202957,0.0356,,,,,,,,,,,,,,,,,,,,,,,,,,,,,,,,,,0,0,0,0,0,0,0,0,0,0,0,0,0,0,0,0,,,,,,,,,,,,,,,,,,,,,
966763,1745295202977,0.036,77.43,-83,,-0.21,0.02,0.99,1,-0,-0,1.01,1.08,94,1057,18.9,3.56,,14.55,1.072,97.0,,8.5,5,,,,,,,,,,,,0,0,0,0,0,0,0,0,0,0,0,0,0,0,0,0,,,,,,0.0,,,,,,,,,,,,,,,
966783,1745295202997,0.0363,,,,,,,,,,,,,,,,,,,,,,,,,,,,,,,,,,0,0,0,0,0,0,0,0,0,0,0,0,0,0,0,0,,,,,,,,,,,,,,,,,,,,,
966803,1745295203009,0.0366,94.39,-91,,-0.25,0.03,0.99,1,-1,-0,1.02,1.08,95,1057,18.9,3.56,,14.55,1.06,97.0,,7.1,5,3,0,3,3,0.0,0.0,0.0,0.0,2.26,,,0,0,0,0,0,0,0,0,0,0,0,0,0,0,0,0,,0,,,,0.0,38.985786,-76.950737,4.3,45.3,34,3,0.8,0,0.0,-1,0.0,0.0,0,0.0009,0.0366
966823,1745295203029,0.037,,,,,,,,,,,,,,,,,,,,,,,,,,,,,,,,,,0,0,0,0,0,0,0,0,0,0,0,0,0,0,0,0,,,,,,,,,,,,,,,,,,,,,
966843,1745295203049,0.0373,106.96,-87,,-0.28,0.03,0.99,1,-1,-0,1.03,1.08,96,1057,19.1,3.56,,14.55,1.061,97.0,,7.1,5,,,,,,,,,,,,0,0,0,0,0,0,0,0,0,0,0,0,0,0,0,0,,,,,,0.0,,,,,,,,,,,,,,,
966863,1745295203069,0.0376,,,,,,,,,,,,,,,,,,,,,,,,,,,,,,,,,,0,0,0,0,0,0,0,0,0,0,0,0,0,0,0,0,,,,,,,,,,,,,,,,,,,,,
966883,1745295203089,0.038,118.28,-76,,-0.31,0.04,0.99,1,-0,0,1.04,1.08,96,1057,19.1,3.56,,14.55,1.061,97.0,,7.1,5,,,,,,,,,,,,0,0,0,0,0,0,0,0,0,0,0,0,0,0,0,0,,,,,,0.0,,,,,,,,,,,,,,,
966903,1745295203115,0.0383,,,,,,,,,,,,,,,,,,,,,,,2,0,2,2,0.0,0.0,0.0,0.0,2.25,,,0,0,0,0,0,0,0,0,0,0,0,0,0,0,0,0,,0,,,,,38.985786,-76.950745,2.86,45.3,34,3,0.8,0,0.0,-1,0.0,,0,0.001,0.0383
966923,1745295203135,0.0386,130.84,-87,,-0.34,0.04,0.99,1,-0,0,1.05,1.08,97,1057,0.0,3.56,,14.55,1.064,97.0,,7.1,5,,,,,,,,,,,,0,0,0,0,0,0,0,0,0,0,0,0,0,0,0,0,,,,,,0.0,,,,,,,,,,,,,,,
966943,1745295203155,0.039,,,,,,,,,,,,,,,,,,,,,,,,,,,,,,,,,,0,0,0,0,0,0,0,0,0,0,0,0,0,0,0,0,,,,,,,,,,,,,,,,,,,,,
966963,1745295203175,0.0393,139.64,-91,,-0.36,0.04,0.99,1,-0,0,1.05,1.08,98,1057,0.0,3.56,,14.55,1.064,97.0,,7.1,5,,,,,,,,,,,,0,0,0,0,0,0,0,0,0,0,0,0,0,0,0,0,,,,,,0.0,,,,,,,,,,,,,,,
966983,1745295203195,0.0396,,,,,,,,,,,,,,,,,,,,,,,,,,,,,,,,,,0,0,0,0,0,0,0,0,0,0,0,0,0,0,0,0,,,,,,,,,,,,,,,,,,,,,
967003,1745295203215,0.04,147.81,-98,,-0.37,0.04,0.99,1,-0,0,1.06,1.08,98,1057,0.0,3.56,,14.55,1.065,97.0,,6.9,5,2,0,2,1,0.0,0.0,0.0,0.0,2.26,,,0,0,0,0,0,0,0,0,0,0,0,0,0,0,0,0,,0,,,,0.0,38.985786,-76.950745,0.52,45.3,34,3,0.8,0,0.0,-1,0.0,0.0,0,0.0011,0.04
967023,1745295203235,0.0403,,,,,,,,,,,,,,,,,,,,,,,,,,,,,,,,,,0,0,0,0,0,0,0,0,0,0,0,0,0,0,0,0,,,,,,,,,,,,,,,,,,,,,
967043,1745295203255,0.0406,154.1,-91,,-0.33,0.05,0.99,1,-0,0,1.05,1.08,97,1057,0.0,3.56,,14.55,1.066,97.0,,6.9,5,,,,,,,,,,,,0,0,0,0,0,0,0,0,0,0,0,0,0,0,0,0,,,,,,0.0,,,,,,,,,,,,,,,
967063,1745295203275,0.041,,,,,,,,,,,,,,,,,,,,,,,,,,,,,,,,,,0,0,0,0,0,0,0,0,0,0,0,0,0,0,0,0,,,,,,,,,,,,,,,,,,,,,
967083,1745295203295,0.0413,157.87,-61,,-0.29,0.04,0.99,1,0,0,1.04,1.08,96,1057,0.0,3.56,,14.55,1.067,97.0,,6.9,5,,,,,,,,,,,,0,0,0,0,0,0,0,0,0,0,0,0,0,0,0,0,,,,,,0.0,,,,,,,,,,,,,,,
967103,1745295203317,0.0416,,,,,,,,,,,,,,,,,,,,,,,2,0,2,1,0.0,0.0,0.0,0.0,2.26,,,0,0,0,0,0,0,0,0,0,0,0,0,0,0,0,0,,0,,,,,38.985786,-76.950745,1.0,45.3,34,3,0.8,0,0.0,-1,0.0,,0,0.0011,0.0416
967123,1745295203337,0.042,161.01,-53,,-0.26,0.03,0.99,1,0,0,1.03,1.08,95,1057,0.0,3.56,,14.55,1.067,97.0,,6.8,5,,,,,,,,,,,,0,0,0,0,0,0,0,0,0,0,0,0,0,0,0,0,,,,,,0.0,,,,,,,,,,,,,,,
967143,1745295203357,0.0423,,,,,,,,,,,,,,,,,,,,,,,,,,,,,,,,,,0,0,0,0,0,0,0,0,0,0,0,0,0,0,0,0,,,,,,,,,,,,,,,,,,,,,
967163,1745295203377,0.0426,162.27,-53,,-0.22,0.02,1.0,1,-0,0,1.02,1.08,94,1057,0.0,3.56,,14.55,1.067,97.0,,6.8,5,,,,,,,,,,,,0,0,0,0,0,0,0,0,0,0,0,0,0,0,0,0,,,,,,0.0,,,,,,,,,,,,,,,
967183,1745295203397,0.043,,,,,,,,,,,,,,,,,,,,,,,,,,,,,,,,,,0,0,0,0,0,0,0,0,0,0,0,0,0,0,0,0,,,,,,,,,,,,,,,,,,,,,
967203,1745295203417,0.0433,164.78,-57,,-0.2,0.01,1.0,0,-0,0,1.02,1.08,94,1057,0.0,3.56,,14.56,1.065,97.0,,6.7,5,2,0,2,1,0.0,0.0,0.0,0.0,2.25,,,0,0,0,0,0,0,0,0,0,0,0,0,0,0,0,0,,0,,,,0.0,38.985786,-76.950745,0.07,45.3,34,3,0.8,0,0.0,-1,0.0,0.0,0,0.0011,0.0433
967223,1745295203437,0.0436,,,,,,,,,,,,,,,,,,,,,,,,,,,,,,,,,,0,0,0,0,0,0,0,0,0,0,0,0,0,0,0,0,,,,,,,,,,,,,,,,,,,,,
967243,1745295203457,0.044,165.41,-46,,-0.18,0.01,1.0,0,-0,0,1.01,1.08,94,1057,0.0,3.56,,14.55,1.064,97.0,,6.7,5,,,,,,,,,,,,0,0,0,0,0,0,0,0,0,0,0,0,0,0,0,0,,,,,,0.0,,,,,,,,,,,,,,,
967263,1745295203477,0.0443,,,,,,,,,,,,,,,,,,,,,,,,,,,,,,,,,,0,0,0,0,0,0,0,0,0,0,0,0,0,0,0,0,,,,,,,,,,,,,,,,,,,,,
967283,1745295203497,0.0446,166.67,-46,,-0.18,0.01,1.0,0,-0,0,1.01,1.08,94,1057,0.0,3.56,,14.55,1.063,97.0,,6.7,5,,,,,,,,,,,,0,0,0,0,0,0,0,0,0,0,0,0,0,0,0,0,,,,,,0.0,,,,,,,,,,,,,,,
967303,1745295203517,0.045,,,,,,,,,,,,,,,,,,,,,,,2,0,2,1,0.0,0.0,0.0,0.0,2.26,,,0,0,0,0,0,0,0,0,0,0,0,0,0,0,0,0,,0,,,,,38.985786,-76.950745,0.18,45.3,34,3,0.8,0,0.0,-1,0.0,,0,0.0011,0.045
967323,1745295203537,0.0453,167.3,-49,,-0.17,0.01,1.0,0,-0,0,1.01,1.08,93,1057,0.0,3.56,,14.55,1.062,97.0,,6.8,5,,,,,,,,,,,,0,0,0,0,0,0,0,0,0,0,0,0,0,0,0,0,,,,,,0.0,,,,,,,,,,,,,,,
967343,1745295203557,0.0457,,,,,,,,,,,,,,,,,,,,,,,,,,,,,,,,,,0,0,0,0,0,0,0,0,0,0,0,0,0,0,0,0,,,,,,,,,,,,,,,,,,,,,
967363,1745295203577,0.046,167.92,-57,,-0.16,0.01,1.0,0,-0,0,1.01,1.08,93,1057,0.0,3.56,,14.55,1.062,97.0,,6.8,5,,,,,,,,,,,,0,0,0,0,0,0,0,0,0,0,0,0,0,0,0,0,,,,,,0.0,,,,,,,,,,,,,,,
967383,1745295203597,0.0463,,,,,,,,,,,,,,,,,,,,,,,,,,,,,,,,,,0,0,0,0,0,0,0,0,0,0,0,0,0,0,0,0,,,,,,,,,,,,,,,,,,,,,
967403,1745295203617,0.0466,168.55,-68,13.16,-0.15,0.01,1.0,0,-0,0,1.01,1.08,93,1057,0.0,3.56,15,14.55,1.061,97.0,174,6.9,5,2,0,2,1,0.0,0.0,0.0,0.0,2.25,0,1.0,0,0,0,0,0,0,0,0,0,0,0,0,0,0,0,0,0,0,1.0,0,0,0.0,38.985786,-76.950745,0.11,45.3,34,3,0.8,0,0.0,-1,0.0,0.0,0,0.0011,0.0466
967423,1745295203637,0.047,,,,,,,,,,,,,,,,,,,,,,,,,,,,,,,,,,0,0,0,0,0,0,0,0,0,0,0,0,0,0,0,0,,,,,,,,,,,,,,,,,,,,,
967443,1745295203657,0.0473,168.55,-53,,-0.14,0.0,1.0,0,-0,0,1.0,1.08,93,1057,0.0,3.56,,14.55,1.062,97.0,,6.9,5,,,,,,,,,,,,0,0,0,0,0,0,0,0,0,0,0,0,0,0,0,0,,,,,,0.0,,,,,,,,,,,,,,,
967463,1745295203677,0.0476,,,,,,,,,,,,,,,,,,,,,,,,,,,,,,,,,,0,0,0,0,0,0,0,0,0,0,0,0,0,0,0,0,,,,,,,,,,,,,,,,,,,,,
967483,1745295203697,0.048,169.18,-61,,-0.13,0.0,1.0,0,-0,0,1.0,1.08,93,1057,0.0,3.56,,14.55,1.06,97.0,,6.9,5,,,,,,,,,,,,0,0,0,0,0,0,0,0,0,0,0,0,0,0,0,0,,,,,,0.0,,,,,,,,,,,,,,,
967503,1745295203719,0.0483,,,,,,,,,,,,,,,,,,,,,,,2,0,2,1,0.0,0.0,0.0,0.0,2.26,,,0,0,0,0,0,0,0,0,0,0,0,0,0,0,0,0,,0,,,,,38.985786,-76.950745,0.06,45.3,34,3,0.8,0,0.0,-1,0.0,,0,0.0011,0.0483
967523,1745295203739,0.0486,169.18,-64,,-0.12,0.0,1.0,0,-0,0,1.0,1.08,93,1057,0.0,3.56,,14.55,1.058,97.0,,7.0,5,,,,,,,,,,,,0,0,0,0,0,0,0,0,0,0,0,0,0,0,0,0,,,,,,0.0,,,,,,,,,,,,,,,
967543,1745295203759,0.049,,,,,,,,,,,,,,,,,,,,,,,,,,,,,,,,,,0,0,0,0,0,0,0,0,0,0,0,0,0,0,0,0,,,,,,,,,,,,,,,,,,,,,
967563,1745295203779,0.0493,168.55,-53,,-0.12,-0.0,1.0,0,-0,0,1.0,1.08,93,1057,0.0,3.56,,14.55,1.058,97.0,,7.0,5,,,,,,,,,,,,0,0,0,0,0,0,0,0,0,0,0,0,0,0,0,0,,,,,,0.0,,,,,,,,,,,,,,,
967583,1745295203799,0.0496,,,,,,,,,,,,,,,,,,,,,,,,,,,,,,,,,,0,0,0,0,0,0,0,0,0,0,0,0,0,0,0,0,,,,,,,,,,,,,,,,,,,,,
967603,1745295203818,0.05,167.3,-68,,-0.11,-0.0,1.0,0,-0,0,1.0,1.08,93,1057,0.0,3.56,,14.55,1.058,97.0,,6.5,5,2,0,2,1,0.0,0.0,0.0,0.0,2.26,,,0,0,0,0,0,0,0,0,0,0,0,0,0,0,0,0,,0,,,,0.0,38.985786,-76.950745,0.04,45.3,34,3,0.8,0,0.0,-1,0.0,0.0,0,0.0011,0.05
967623,1745295203838,0.0503,,,,,,,,,,,,,,,,,,,,,,,,,,,,,,,,,,0,0,0,0,0,0,0,0,0,0,0,0,0,0,0,0,,,,,,,,,,,,,,,,,,,,,
967643,1745295203858,0.0506,168.55,-64,,-0.11,-0.0,1.0,0,-0,0,1.0,1.08,93,1057,0.0,3.56,,14.55,1.057,97.0,,6.5,5,,,,,,,,,,,,0,0,0,0,0,0,0,0,0,0,0,0,0,0,0,0,,,,,,0.0,,,,,,,,,,,,,,,
967663,1745295203878,0.051,,,,,,,,,,,,,,,,,,,,,,,,,,,,,,,,,,0,0,0,0,0,0,0,0,0,0,0,0,0,0,0,0,,,,,,,,,,,,,,,,,,,,,
967683,1745295203898,0.0513,168.55,-68,,-0.1,-0.0,1.0,0,-0,0,1.0,1.08,93,1057,0.0,3.56,,14.56,1.056,97.0,,6.5,5,,,,,,,,,,,,0,0,0,0,0,0,0,0,0,0,0,0,0,0,0,0,,,,,,0.0,,,,,,,,,,,,,,,
967703,1745295203918,0.0516,,,,,,,,,,,,,,,,,,,,,,,2,0,2,1,0.0,0.0,0.0,0.0,2.26,,,0,0,0,0,0,0,0,0,0,0,0,0,0,0,0,0,,0,,,,,38.985786,-76.950745,0.04,45.3,34,3,0.8,0,0.0,-1,0.0,,0,0.0011,0.0516
967723,1745295203938,0.052,168.55,-68,,-0.1,-0.0,1.0,0,-0,0,1.0,1.08,93,1057,0.0,3.56,,14.56,1.052,97.0,,6.7,5,,,,,,,,,,,,0,0,0,0,0,0,0,0,0,0,0,0,0,0,0,0,,,,,,0.0,,,,,,,,,,,,,,,
967743,1745295203958,0.0523,,,,,,,,,,,,,,,,,,,,,,,,,,,,,,,,,,0,0,0,0,0,0,0,0,0,0,0,0,0,0,0,0,,,,,,,,,,,,,,,,,,,,,
967763,1745295203978,0.0526,168.55,-61,,-0.1,-0.0,1.0,0,-0,0,1.0,1.08,93,1057,0.0,3.56,,14.56,1.052,97.0,,6.7,5,,,,,,,,,,,,0,0,0,0,0,0,0,0,0,0,0,0,0,0,0,0,,,,,,0.0,,,,,,,,,,,,,,,
967783,1745295203998,0.053,,,,,,,,,,,,,,,,,,,,,,,,,,,,,,,,,,0,0,0,0,0,0,0,0,0,0,0,0,0,0,0,0,,,,,,,,,,,,,,,,,,,,,
967803,1745295204008,0.0533,166.67,-68,,-0.09,-0.01,1.0,0,-0,0,1.0,1.08,93,1057,0.0,3.56,,14.55,1.054,97.0,,6.8,5,2,0,2,1,0.0,0.0,0.0,0.0,2.25,,,0,0,0,0,0,0,0,0,0,0,0,0,0,0,0,0,,0,,,,0.0,38.985786,-76.950745,0.11,45.3,34,3,0.8,0,0.0,-1,0.0,0.0,0,0.0011,0.0533
967823,1745295204028,0.0536,,,,,,,,,,,,,,,,,,,,,,,,,,,,,,,,,,0,0,0,0,0,0,0,0,0,0,0,0,0,0,0,0,,,,,,,,,,,,,,,,,,,,,
967843,1745295204048,0.054,166.04,-57,,-0.09,-0.01,1.0,0,-0,0,1.0,1.08,93,1057,0.0,3.56,,14.55,1.053,97.0,,6.8,5,,,,,,,,,,,,0,0,0,0,0,0,0,0,0,0,0,0,0,0,0,0,,,,,,0.0,,,,,,,,,,,,,,,
967863,1745295204068,0.0543,,,,,,,,,,,,,,,,,,,,,,,,,,,,,,,,,,0,0,0,0,0,0,0,0,0,0,0,0,0,0,0,0,,,,,,,,,,,,,,,,,,,,,
967883,1745295204088,0.0546,174.21,-68,,-0.09,-0.01,1.0,0,-0,0,1.0,1.08,92,1057,0.0,3.56,,14.56,1.052,97.0,,6.8,5,,,,,,,,,,,,0,0,0,0,0,0,0,0,0,0,0,0,0,0,0,0,,,,,,0.0,,,,,,,,,,,,,,,
967903,1745295204118,0.055,,,,,,,,,,,,,,,,,,,,,,,2,0,2,1,0.0,0.0,0.0,0.0,2.25,,,0,0,0,0,0,0,0,0,0,0,0,0,0,0,0,0,,0,,,,,38.985786,-76.950745,0.07,45.3,34,3,0.8,0,0.0,-1,0.0,,0,0.0011,0.055
967923,1745295204138,0.0553,174.84,-72,,-0.09,-0.01,1.0,0,-0,0,1.0,1.08,93,1057,0.0,3.56,,14.55,1.051,97.0,,107.4,5,,,,,,,,,,,,0,0,0,0,0,0,0,0,0,0,0,0,0,0,0,0,,,,,,0.0,,,,,,,,,,,,,,,
967943,1745295204158,0.0556,,,,,,,,,,,,,,,,,,,,,,,,,,,,,,,,,,0,0,0,0,0,0,0,0,0,0,0,0,0,0,0,0,,,,,,,,,,,,,,,,,,,,,
967963,1745295204178,0.056,174.21,-72,,-0.09,-0.01,1.0,0,-0,0,1.0,1.08,93,1057,0.0,3.56,,14.55,1.051,97.0,,107.4,5,,,,,,,,,,,,0,0,0,0,0,0,0,0,0,0,0,0,0,0,0,0,,,,,,0.0,,,,,,,,,,,,,,,
967983,1745295204198,0.0563,,,,,,,,,,,,,,,,,,,,,,,,,,,,,,,,,,0,0,0,0,0,0,0,0,0,0,0,0,0,0,0,0,,,,,,,,,,,,,,,,,,,,,
968003,1745295204216,0.0566,172.32,-95,,-0.08,-0.01,1.0,0,-0,0,1.0,1.08,93,1057,0.0,3.56,,14.54,1.052,97.0,,107.4,5,2,0,2,1,0.0,0.0,0.0,0.0,2.26,,,0,0,0,0,0,0,0,0,0,0,0,0,0,0,0,0,,0,,,,0.0,38.985786,-76.950745,0.11,45.3,34,3,0.8,0,0.0,-1,0.0,0.0,0,0.0011,0.0566
968023,1745295204236,0.057,,,,,,,,,,,,,,,,,,,,,,,,,,,,,,,,,,0,0,0,0,0,0,0,0,0,0,0,0,0,0,0,0,,,,,,,,,,,,,,,,,,,,,
968043,1745295204256,0.0573,170.44,-64,,-0.08,-0.01,1.0,0,-0,0,1.0,1.08,93,1057,0.0,3.56,,14.51,1.05,97.0,,107.4,5,,,,,,,,,,,,0,0,0,0,0,0,0,0,0,0,0,0,0,0,0,0,,,,,,0.0,,,,,,,,,,,,,,,
968063,1745295204276,0.0576,,,,,,,,,,,,,,,,,,,,,,,,,,,,,,,,,,0,0,0,0,0,0,0,0,0,0,0,0,0,0,0,0,,,,,,,,,,,,,,,,,,,,,
968083,1745295204296,0.058,169.18,-61,,-0.08,-0.02,0.99,0,-0,0,1.0,1.08,92,1057,0.0,3.56,,14.52,1.054,97.0,,107.4,5,,,,,,,,,,,,0,0,0,0,0,0,0,0,0,0,0,0,0,0,0,0,,,,,,0.0,,,,,,,,,,,,,,,
968103,1745295204318,0.0583,,,,,,,,,,,,,,,,,,,,,,,2,0,2,1,0.0,0.0,0.0,0.0,2.26,,,0,0,0,0,0,0,0,0,0,0,0,0,0,0,0,0,,0,,,,,38.985786,-76.950745,0.09,45.3,34,3,0.8,0,0.0,-1,0.0,,0,0.0011,0.0583
968123,1745295204338,0.0586,167.3,-76,,-0.08,-0.02,0.99,0,-0,0,1.0,1.08,92,1057,0.0,3.56,,14.54,1.047,97.0,,107.4,5,,,,,,,,,,,,0,0,0,0,0,0,0,0,0,0,0,0,0,0,0,0,,,,,,0.0,,,,,,,,,,,,,,,
968143,1745295204358,0.059,,,,,,,,,,,,,,,,,,,,,,,,,,,,,,,,,,0,0,0,0,0,0,0,0,0,0,0,0,0,0,0,0,,,,,,,,,,,,,,,,,,,,,
968163,1745295204378,0.0593,166.67,-68,,-0.08,-0.02,0.99,0,-0,0,1.0,1.08,92,1057,0.0,3.56,,14.54,1.047,97.0,,107.4,5,,,,,,,,,,,,0,0,0,0,0,0,0,0,0,0,0,0,0,0,0,0,,,,,,0.0,,,,,,,,,,,,,,,
968183,1745295204398,0.0596,,,,,,,,,,,,,,,,,,,,,,,,,,,,,,,,,,0,0,0,0,0,0,0,0,0,0,0,0,0,0,0,0,,,,,,,,,,,,,,,,,,,,,
968203,1745295204418,0.06,167.3,-83,,-0.08,-0.0,0.99,0,-0,0,0.99,1.08,91,1057,0.0,3.56,,14.46,1.044,97.0,,107.4,5,2,0,2,1,0.0,0.0,0.0,0.0,2.25,,,0,0,0,0,0,0,0,0,0,0,0,0,0,0,0,0,,0,,,,0.0,38.985786,-76.950745,0.07,45.3,34,3,0.8,0,0.0,-1,0.0,0.0,0,0.0011,0.06
968223,1745295204438,0.0603,,,,,,,,,,,,,,,,,,,,,,,,,,,,,,,,,,0,0,0,0,0,0,0,0,0,0,0,0,0,0,0,0,,,,,,,,,,,,,,,,,,,,,
968243,1745295204458,0.0606,165.41,-83,,-0.08,-0.01,0.99,0,-0,0,0.99,1.08,91,0,0.0,3.59,,14.55,1.041,97.0,,107.4,5,,,,,,,,,,,,0,0,0,0,0,0,0,0,0,0,0,0,0,0,0,0,,,,,,0.0,,,,,,,,,,,,,,,
968263,1745295204478,0.061,,,,,,,,,,,,,,,,,,,,,,,,,,,,,,,,,,0,0,0,0,0,0,0,0,0,0,0,0,0,0,0,0,,,,,,,,,,,,,,,,,,,,,
968283,1745295204498,0.0613,166.04,-72,,-0.08,0.0,0.99,0,-0,0,0.99,1.08,91,0,0.0,3.59,,14.48,1.039,97.0,,107.4,5,,,,,,,,,,,,0,0,0,0,0,0,0,0,0,0,0,0,0,0,0,0,,,,,,0.0,,,,,,,,,,,,,,,
968303,1745295204518,0.0616,,,,,,,,,,,,,,,,,,,,,,,2,0,2,1,0.0,0.0,0.0,0.0,2.25,,,0,0,0,0,0,0,0,0,0,0,0,0,0,0,0,0,,0,,,,,38.985786,-76.950745,0.07,45.3,34,3,0.8,0,0.0,-1,0.0,,0,0.0011,0.0616
968323,1745295204538,0.062,164.78,-76,,-0.07,-0.0,0.99,0,-0,0,0.99,1.08,92,418,0.0,3.59,,14.39,1.038,97.0,,107.4,5,,,,,,,,,,,,0,0,0,0,0,0,0,0,0,0,0,0,0,0,0,0,,,,,,0.0,,,,,,,,,,,,,,,
968343,1745295204558,0.0623,,,,,,,,,,,,,,,,,,,,,,,,,,,,,,,,,,0,0,0,0,0,0,0,0,0,0,0,0,0,0,0,0,,,,,,,,,,,,,,,,,,,,,
968363,1745295204578,0.0626,162.9,-61,,-0.07,-0.01,0.99,0,-0,0,0.99,1.08,92,1048,0.0,3.58,,14.39,1.038,97.0,,107.4,5,,,,,,,,,,,,0,0,0,0,0,0,0,0,0,0,0,0,0,0,0,0,,,,,,0.0,,,,,,,,,,,,,,,
968383,1745295204598,0.063,,,,,,,,,,,,,,,,,,,,,,,,,,,,,,,,,,0,0,0,0,0,0,0,0,0,0,0,0,0,0,0,0,,,,,,,,,,,,,,,,,,,,,
968403,1745295204618,0.0633,162.9,-76,12.29,-0.06,-0.02,1.01,0,-0,0,1.01,1.08,93,1048,0.0,3.58,15,14.3,1.041,97.0,174,107.4,5,2,0,2,1,0.0,0.0,0.0,0.0,2.26,0,1.0,0,0,0,0,0,0,0,0,0,0,0,0,0,0,0,0,0,0,1.0,0,0,0.0,38.985786,-76.950745,0.05,45.3,34,3,0.8,0,0.0,-1,0.0,0.0,0,0.0011,0.0633
968423,1745295204638,0.0636,,,,,,,,,,,,,,,,,,,,,,,,,,,,,,,,,,0,0,0,0,0,0,0,0,0,0,0,0,0,0,0,0,,,,,,,,,,,,,,,,,,,,,
968443,1745295204658,0.064,161.01,-68,,-0.07,0.0,1.0,-0,-0,0,1.0,1.08,92,1788,0.0,3.58,,14.14,1.131,97.0,,107.4,5,,,,,,,,,,,,0,0,0,0,0,0,0,0,0,0,0,0,0,0,0,0,,,,,,0.0,,,,,,,,,,,,,,,
968463,1745295204678,0.0643,,,,,,,,,,,,,,,,,,,,,,,,,,,,,,,,,,0,0,0,0,0,0,0,0,0,0,0,0,0,0,0,0,,,,,,,,,,,,,,,,,,,,,
968483,1745295204698,0.0646,158.5,-76,,-0.07,-0.01,1.0,-0,-0,0,1.01,1.08,93,1915,0.0,3.52,,14.07,1.235,97.0,,107.4,5,,,,,,,,,,,,0,0,0,0,0,0,0,0,0,0,0,0,0,0,0,0,,,,,,0.0,,,,,,,,,,,,,,,
968503,1745295204718,0.065,,,,,,,,,,,,,,,,,,,,,,,2,0,2,1,0.0,0.0,0.0,0.0,2.25,,,0,0,0,0,0,0,0,0,0,0,0,0,0,0,0,0,,0,,,,,38.985786,-76.950745,0.04,45.3,34,3,0.8,0,0.0,-1,0.0,,0,0.0011,0.065
968523,1745295204738,0.0653,156.61,-76,,-0.09,-0.02,0.99,0,-0,0,0.99,1.08,92,1913,0.0,3.51,,14.02,1.244,97.0,,107.5,5,,,,,,,,,,,,0,0,0,0,0,0,0,0,0,0,0,0,0,0,0,0,,,,,,0.0,,,,,,,,,,,,,,,
968543,1745295204758,0.0656,,,,,,,,,,,,,,,,,,,,,,,,,,,,,,,,,,0,0,0,0,0,0,0,0,0,0,0,0,0,0,0,0,,,,,,,,,,,,,,,,,,,,,
968563,1745295204778,0.066,155.35,-68,,-0.09,-0.02,0.99,0,-0,0,1.0,1.08,92,2118,0.0,3.52,,14.02,1.244,97.0,,107.5,5,,,,,,,,,,,,0,0,0,0,0,0,0,0,0,0,0,0,0,0,0,0,,,,,,0.0,,,,,,,,,,,,,,,
968583,1745295204798,0.0663,,,,,,,,,,,,,,,,,,,,,,,,,,,,,,,,,,0,0,0,0,0,0,0,0,0,0,0,0,0,0,0,0,,,,,,,,,,,,,,,,,,,,,
968603,1745295204817,0.0667,153.47,-91,,-0.1,-0.03,1.0,0,-0,0,1.01,1.08,93,2118,0.0,3.52,,13.91,1.194,97.0,,107.4,5,2,0,2,1,0.0,0.0,0.0,0.0,2.26,,,0,0,0,0,0,0,0,0,0,0,0,0,0,0,0,0,,0,,,,0.0,38.985786,-76.950745,0.08,45.3,34,3,0.8,0,0.0,-1,0.0,0.0,0,0.0011,0.0667
968623,1745295204837,0.067,,,,,,,,,,,,,,,,,,,,,,,,,,,,,,,,,,0,0,0,0,0,0,0,0,0,0,0,0,0,0,0,0,,,,,,,,,,,,,,,,,,,,,
968643,1745295204857,0.0673,152.21,-72,,-0.1,-0.04,0.99,0,-0,0,1.0,1.08,92,2354,0.0,3.45,,13.69,1.146,97.0,,107.4,5,,,,,,,,,,,,0,0,0,0,0,0,0,0,0,0,0,0,0,0,0,0,,,,,,0.0,,,,,,,,,,,,,,,
968663,1745295204877,0.0676,,,,,,,,,,,,,,,,,,,,,,,,,,,,,,,,,,0,0,0,0,0,0,0,0,0,0,0,0,0,0,0,0,,,,,,,,,,,,,,,,,,,,,
968683,1745295204897,0.068,149.7,-80,,-0.08,-0.04,1.0,0,-0,0,1.0,1.08,93,2234,0.0,3.44,,13.63,1.12,97.0,,107.4,5,,,,,,,,,,,,0,0,0,0,0,0,0,0,0,0,0,0,0,0,0,0,,,,,,0.0,,,,,,,,,,,,,,,
968703,1745295204917,0.0683,,,,,,,,,,,,,,,,,,,,,,,2,0,2,1,0.0,0.0,0.0,0.0,2.25,,,0,0,0,0,0,0,0,0,0,0,0,0,0,0,0,0,,0,,,,,38.985786,-76.950745,0.11,45.3,34,3,0.8,0,0.0,-1,0.0,,0,0.0011,0.0683
968723,1745295204937,0.0686,149.7,-87,,-0.09,-0.02,0.98,0,-0,0,0.98,1.08,91,2403,0.0,3.45,,13.57,1.098,97.0,,107.4,5,,,,,,,,,,,,0,0,0,0,0,0,0,0,0,0,0,0,0,0,0,0,,,,,,0.0,,,,,,,,,,,,,,,
968743,1745295204957,0.069,,,,,,,,,,,,,,,,,,,,,,,,,,,,,,,,,,0,0,0,0,0,0,0,0,0,0,0,0,0,0,0,0,,,,,,,,,,,,,,,,,,,,,
968763,1745295204977,0.0693,146.56,-76,,-0.09,-0.04,1.02,-0,-0,0,1.03,1.08,95,2579,0.0,3.4,,13.57,1.098,97.0,,107.4,5,,,,,,,,,,,,0,0,0,0,0,0,0,0,0,0,0,0,0,0,0,0,,,,,,0.0,,,,,,,,,,,,,,,
968783,1745295204997,0.0696,,,,,,,,,,,,,,,,,,,,,,,,,,,,,,,,,,0,0,0,0,0,0,0,0,0,0,0,0,0,0,0,0,,,,,,,,,,,,,,,,,,,,,
968803,1745295205009,0.07,144.67,-91,,-0.08,-0.02,0.99,0,-0,0,0.99,1.08,91,2579,0.0,3.4,,13.41,1.075,97.0,,107.5,5,2,0,2,1,0.0,0.0,0.0,0.0,2.25,,,0,0,0,0,0,0,0,0,0,0,0,0,0,0,0,0,,0,,,,0.0,38.985786,-76.950745,0.04,45.3,34,3,0.8,0,0.0,-1,0.0,0.0,0,0.0011,0.07
968823,1745295205029,0.0703,,,,,,,,,,,,,,,,,,,,,,,,,,,,,,,,,,0,0,0,0,0,0,0,0,0,0,0,0,0,0,0,0,,,,,,,,,,,,,,,,,,,,,
968843,1745295205049,0.0706,145.3,-72,,-0.08,-0.04,1.01,0,-0,0,1.01,1.08,94,2680,0.0,3.38,,13.24,1.045,97.0,,107.5,5,,,,,,,,,,,,0,0,0,0,0,0,0,0,0,0,0,0,0,0,0,0,,,,,,0.0,,,,,,,,,,,,,,,
968863,1745295205069,0.071,,,,,,,,,,,,,,,,,,,,,,,,,,,,,,,,,,0,0,0,0,0,0,0,0,0,0,0,0,0,0,0,0,,,,,,,,,,,,,,,,,,,,,
968883,1745295205089,0.0713,144.67,-80,,-0.07,-0.02,0.99,0,-0,0,0.99,1.08,92,2666,0.0,3.39,,13.16,1.053,97.0,,107.5,5,,,,,,,,,,,,0,0,0,0,0,0,0,0,0,0,0,0,0,0,0,0,,,,,,0.0,,,,,,,,,,,,,,,
968903,1745295205115,0.0716,,,,,,,,,,,,,,,,,,,,,,,2,0,2,1,0.0,0.0,0.0,0.0,2.25,,,0,0,0,0,0,0,0,0,0,0,0,0,0,0,0,0,,0,,,,,38.985786,-76.950745,0.0,45.2,34,3,0.8,0,0.0,-1,0.0,,0,0.0011,0.0716
968923,1745295205135,0.072,142.79,-76,,-0.08,-0.02,1.01,0,-0,0,1.02,1.08,94,2611,0.0,3.39,,13.16,1.095,97.0,,107.4,5,,,,,,,,,,,,0,0,0,0,0,0,0,0,0,0,0,0,0,0,0,0,,,,,,0.0,,,,,,,,,,,,,,,
968943,1745295205155,0.0723,,,,,,,,,,,,,,,,,,,,,,,,,,,,,,,,,,0,0,0,0,0,0,0,0,0,0,0,0,0,0,0,0,,,,,,,,,,,,,,,,,,,,,
968963,1745295205175,0.0726,143.41,-83,,-0.08,0.0,0.99,0,-0,0,0.99,1.08,91,2569,0.0,3.4,,13.16,1.095,97.0,,107.4,5,,,,,,,,,,,,0,0,0,0,0,0,0,0,0,0,0,0,0,0,0,0,,,,,,0.0,,,,,,,,,,,,,,,
968983,1745295205195,0.073,,,,,,,,,,,,,,,,,,,,,,,,,,,,,,,,,,0,0,0,0,0,0,0,0,0,0,0,0,0,0,0,0,,,,,,,,,,,,,,,,,,,,,
969003,1745295205209,0.0733,142.16,-95,,-0.08,-0.0,0.99,0,-0,0,0.99,1.08,92,2569,0.0,3.4,,13.17,1.117,97.0,,107.4,5,0,0,0,1,0.0,0.0,0.0,0.0,2.26,,,0,0,0,0,0,0,0,0,0,0,0,0,0,0,0,0,,0,,,,0.0,38.985786,-76.950745,0.11,45.2,34,3,0.8,0,0.0,-1,0.0,0.0,0,0.0011,0.0733
969023,1745295205229,0.0736,,,,,,,,,,,,,,,,,,,,,,,,,,,,,,,,,,0,0,0,0,0,0,0,0,0,0,0,0,0,0,0,0,,,,,,,,,,,,,,,,,,,,,
969043,1745295205249,0.074,143.41,-72,,-0.07,-0.03,1.01,0,-0,0,1.01,1.08,94,2488,0.0,3.41,,13.19,1.129,97.0,,107.4,5,,,,,,,,,,,,0,0,0,0,0,0,0,0,0,0,0,0,0,0,0,0,,,,,,0.0,,,,,,,,,,,,,,,
969063,1745295205269,0.0743,,,,,,,,,,,,,,,,,,,,,,,,,,,,,,,,,,0,0,0,0,0,0,0,0,0,0,0,0,0,0,0,0,,,,,,,,,,,,,,,,,,,,,
969083,1745295205289,0.0746,142.16,-83,,-0.07,-0.03,1.0,0,-0,0,1.0,1.08,93,2474,0.0,3.41,,13.24,1.16,97.0,,107.4,5,,,,,,,,,,,,0,0,0,0,0,0,0,0,0,0,0,0,0,0,0,0,,,,,,0.0,,,,,,,,,,,,,,,
969103,1745295205317,0.075,,,,,,,,,,,,,,,,,,,,,,,0,0,0,0,0.0,0.0,0.0,0.0,2.26,,,0,0,0,0,0,0,0,0,0,0,0,0,0,0,0,0,,0,,,,,38.985786,-76.950745,0.16,45.2,34,3,0.8,0,0.0,-1,0.0,,0,0.0011,0.075
969123,1745295205337,0.0753,140.27,-87,,-0.07,-0.01,0.98,0,-0,0,0.98,1.08,90,2415,0.0,3.43,,13.27,1.2,97.0,,86.2,5,,,,,,,,,,,,0,0,0,0,0,0,0,0,0,0,0,0,0,0,0,0,,,,,,0.0,,,,,,,,,,,,,,,
969143,1745295205357,0.0756,,,,,,,,,,,,,,,,,,,,,,,,,,,,,,,,,,0,0,0,0,0,0,0,0,0,0,0,0,0,0,0,0,,,,,,,,,,,,,,,,,,,,,
969163,1745295205377,0.076,140.27,-68,,-0.07,-0.02,1.0,-0,-0,0,1.0,1.08,92,2715,0.0,3.39,,13.27,1.2,97.0,,86.2,5,,,,,,,,,,,,0,0,0,0,0,0,0,0,0,0,0,0,0,0,0,0,,,,,,0.0,,,,,,,,,,,,,,,
969183,1745295205397,0.0763,,,,,,,,,,,,,,,,,,,,,,,,,,,,,,,,,,0,0,0,0,0,0,0,0,0,0,0,0,0,0,0,0,,,,,,,,,,,,,,,,,,,,,
969203,1745295205417,0.0766,139.01,-95,,-0.06,0.01,0.99,-0,-0,0,0.99,1.08,92,2715,0.0,3.39,,13.15,1.236,97.0,,21.7,5,0,0,0,0,0.0,0.0,0.0,0.0,2.26,,,0,0,0,0,0,0,0,0,0,0,0,0,0,0,0,0,,0,,,,0.0,38.985786,-76.950745,0.15,45.2,34,3,0.8,0,0.0,-1,0.0,0.0,0,0.0011,0.0766
969223,1745295205437,0.077,,,,,,,,,,,,,,,,,,,,,,,,,,,,,,,,,,0,0,0,0,0,0,0,0,0,0,0,0,0,0,0,0,,,,,,,,,,,,,,,,,,,,,
969243,1745295205457,0.0773,139.01,-91,,-0.07,-0.0,1.0,0,-0,0,1.0,1.08,93,2637,0.0,3.36,,13.05,1.23,97.0,,21.7,5,,,,,,,,,,,,0,0,0,0,0,0,0,0,0,0,0,0,0,0,0,0,,,,,,0.0,,,,,,,,,,,,,,,
969263,1745295205477,0.0777,,,,,,,,,,,,,,,,,,,,,,,,,,,,,,,,,,0,0,0,0,0,0,0,0,0,0,0,0,0,0,0,0,,,,,,,,,,,,,,,,,,,,,
969283,1745295205497,0.078,130.84,-91,,-0.07,0.01,0.97,0,-0,0,0.98,1.08,90,2551,0.0,3.37,,13.13,1.166,97.0,,21.7,5,,,,,,,,,,,,0,0,0,0,0,0,0,0,0,0,0,0,0,0,0,0,,,,,,0.0,,,,,,,,,,,,,,,
969303,1745295205517,0.0783,,,,,,,,,,,,,,,,,,,,,,,0,0,0,0,0.0,0.0,0.0,0.0,2.25,,,0,0,0,0,0,0,0,0,0,0,0,0,0,0,0,0,,0,,,,,38.985786,-76.950745,0.15,45.2,34,3,0.8,0,0.0,-1,0.0,,0,0.0011,0.0783
969323,1745295205537,0.0786,118.28,-98,,-0.07,-0.0,1.01,-0,-0,0,1.01,1.08,93,2517,2.5,3.39,,13.39,1.136,97.0,,21.4,5,,,,,,,,,,,,0,0,0,0,0,0,0,0,0,0,0,0,0,0,0,0,,,,,,0.0,,,,,,,,,,,,,,,
969343,1745295205557,0.079,,,,,,,,,,,,,,,,,,,,,,,,,,,,,,,,,,0,0,0,0,0,0,0,0,0,0,0,0,0,0,0,0,,,,,,,,,,,,,,,,,,,,,
969363,1745295205577,0.0793,108.22,-80,,-0.07,-0.01,1.0,0,-0,0,1.01,1.08,93,2464,4.3,4.26,,13.39,1.136,97.0,,21.4,5,,,,,,,,,,,,0,0,0,0,0,0,0,0,0,0,0,0,0,0,0,0,,,,,,0.0,,,,,,,,,,,,,,,
969383,1745295205597,0.0796,,,,,,,,,,,,,,,,,,,,,,,,,,,,,,,,,,0,0,0,0,0,0,0,0,0,0,0,0,0,0,0,0,,,,,,,,,,,,,,,,,,,,,
969403,1745295205615,0.08,98.79,-91,13.48,-0.06,-0.01,1.0,-0,-0,0,1.0,1.08,92,2464,4.3,4.26,15,13.59,1.143,97.0,173,20.9,5,0,0,0,0,0.0,0.0,0.0,0.0,2.25,0,1.0,0,0,0,0,0,0,0,0,0,0,0,0,0,0,0,0,0,0,1.0,0,0,0.0,38.985786,-76.950745,0.11,45.2,34,3,0.8,0,0.0,-1,0.0,0.0,0,0.0011,0.08
969423,1745295205635,0.0803,,,,,,,,,,,,,,,,,,,,,,,,,,,,,,,,,,0,0,0,0,0,0,0,0,0,0,0,0,0,0,0,0,,,,,,,,,,,,,,,,,,,,,
969443,1745295205655,0.0806,89.37,-95,,-0.07,0.0,1.01,-0,-0,0,1.02,1.08,94,2482,6.7,4.13,,13.71,1.152,97.0,,20.9,5,,,,,,,,,,,,0,0,0,0,0,0,0,0,0,0,0,0,0,0,0,0,,,,,,0.0,,,,,,,,,,,,,,,
969463,1745295205675,0.081,,,,,,,,,,,,,,,,,,,,,,,,,,,,,,,,,,0,0,0,0,0,0,0,0,0,0,0,0,0,0,0,0,,,,,,,,,,,,,,,,,,,,,
969483,1745295205695,0.0813,76.8,-83,,-0.07,0.02,0.98,1,-0,0,0.98,1.08,91,2540,12.4,4.34,,13.96,1.167,97.0,,20.9,5,,,,,,,,,,,,0,0,0,0,0,0,0,0,0,0,0,0,0,0,0,0,,,,,,0.0,,,,,,,,,,,,,,,
969503,1745295205717,0.0816,,,,,,,,,,,,,,,,,,,,,,,0,0,0,0,0.0,0.0,0.0,0.0,2.25,,,0,0,0,0,0,0,0,0,0,0,0,0,0,0,0,0,,0,,,,,38.985786,-76.950745,0.18,45.2,34,3,0.8,0,0.0,-1,0.0,,0,0.0011,0.0816
969523,1745295205737,0.082,62.34,-76,,-0.07,-0.01,1.02,-0,-0,0,1.02,1.08,94,2795,12.6,4.3,,14.0,1.159,97.0,,21.5,5,,,,,,,,,,,,0,0,0,0,0,0,0,0,0,0,0,0,0,0,0,0,,,,,,0.0,,,,,,,,,,,,,,,
969543,1745295205757,0.0823,,,,,,,,,,,,,,,,,,,,,,,,,,,,,,,,,,0,0,0,0,0,0,0,0,0,0,0,0,0,0,0,0,,,,,,,,,,,,,,,,,,,,,
969563,1745295205777,0.0826,49.77,-76,,-0.06,-0.03,1.08,0,-0,0,1.08,1.08,100,2929,12.8,4.43,,14.0,1.159,97.0,,21.5,5,,,,,,,,,,,,0,0,0,0,0,0,0,0,0,0,0,0,0,0,0,0,,,,,,0.0,,,,,,,,,,,,,,,
969583,1745295205797,0.083,,,,,,,,,,,,,,,,,,,,,,,,,,,,,,,,,,0,0,0,0,0,0,0,0,0,0,0,0,0,0,0,0,,,,,,,,,,,,,,,,,,,,,
969603,1745295205814,0.0833,39.09,-95,,-0.05,-0.1,1.15,1,-0,0,1.15,1.15,100,2929,12.8,4.43,,13.9,1.149,97.0,,24.1,5,0,0,0,0,0.0,0.0,0.0,0.0,2.26,,,0,0,0,0,0,0,0,0,0,0,0,0,0,0,0,0,,0,,,,0.0,38.985786,-76.950745,0.04,45.2,34,3,0.8,0,0.0,-1,0.0,0.0,0,0.0011,0.0833
969623,1745295205834,0.0836,,,,,,,,,,,,,,,,,,,,,,,,,,,,,,,,,,0,0,0,0,0,0,0,0,0,0,0,0,0,0,0,0,,,,,,,,,,,,,,,,,,,,,
969643,1745295205854,0.084,30.29,-83,,-0.05,-0.17,1.12,-2,-0,-0,1.14,1.15,99,3119,21.3,4.87,,13.99,1.131,97.0,,24.1,5,,,,,,,,,,,,0,0,0,0,0,0,0,0,0,0,0,0,0,0,0,0,,,,,,0.0,,,,,,,,,,,,,,,
969663,1745295205874,0.0843,,,,,,,,,,,,,,,,,,,,,,,,,,,,,,,,,,0,0,0,0,0,0,0,0,0,0,0,0,0,0,0,0,,,,,,,,,,,,,,,,,,,,,
969683,1745295205894,0.0846,22.75,-135,,-0.06,-0.06,1.11,0,-0,0,1.12,1.15,97,3330,20.5,4.6,,13.95,1.131,97.0,,24.1,5,,,,,,,,,,,,0,0,0,0,0,0,0,0,0,0,0,0,0,0,0,0,,,,,,0.0,,,,,,,,,,,,,,,
969703,1745295205916,0.085,,,,,,,,,,,,,,,,,,,,,,,0,0,0,0,0.0,0.0,0.0,0.0,2.25,,,0,0,0,0,0,0,0,0,0,0,0,0,0,0,0,0,,0,,,,,38.985786,-76.950745,0.18,45.2,34,3,0.8,0,0.0,-1,0.0,,0,0.0011,0.085
969723,1745295205936,0.0853,15.84,-80,,-0.06,0.06,1.06,-1,-0,0,1.06,1.15,92,3610,8.8,3.82,,13.52,1.141,97.0,,28.5,5,,,,,,,,,,,,0,0,0,0,0,0,0,0,0,0,0,0,0,0,0,0,,,,,,0.0,,,,,,,,,,,,,,,
969743,1745295205956,0.0856,,,,,,,,,,,,,,,,,,,,,,,,,,,,,,,,,,0,0,0,0,0,0,0,0,0,0,0,0,0,0,0,0,,,,,,,,,,,,,,,,,,,,,
969763,1745295205976,0.086,8.92,-83,,-0.04,0.01,1.06,-1,-0,0,1.06,1.15,92,3666,2.0,3.65,,13.52,1.141,97.0,,28.5,5,,,,,,,,,,,,0,0,0,0,0,0,0,0,0,0,0,0,0,0,0,0,,,,,,0.0,,,,,,,,,,,,,,,
969783,1745295205996,0.0863,,,,,,,,,,,,,,,,,,,,,,,,,,,,,,,,,,0,0,0,0,0,0,0,0,0,0,0,0,0,0,0,0,,,,,,,,,,,,,,,,,,,,,
969803,1745295206006,0.0866,5.15,-83,,-0.04,0.0,1.04,-1,-0,0,1.04,1.15,90,3666,2.0,3.65,,12.99,1.137,97.0,,31.1,5,0,0,0,0,0.0,0.0,0.0,0.0,2.25,,,0,0,0,0,0,0,0,0,0,0,0,0,0,0,0,0,,0,,,,0.0,38.985786,-76.950745,0.1,45.2,34,3,0.8,0,0.0,-1,0.0,0.0,0,0.0011,0.0866
969823,1745295206026,0.087,,,,,,,,,,,,,,,,,,,,,,,,,,,,,,,,,,0,0,0,0,0,0,0,0,0,0,0,0,0,0,0,0,,,,,,,,,,,,,,,,,,,,,
969843,1745295206046,0.0873,0.13,-83,,-0.05,-0.03,1.01,-1,-0,-0,1.01,1.15,88,3694,1.1,3.07,,12.57,1.124,97.0,,31.1,5,,,,,,,,,,,,0,0,0,0,0,0,0,0,0,0,0,0,0,0,0,0,,,,,,0.0,,,,,,,,,,,,,,,
969863,1745295206066,0.0876,,,,,,,,,,,,,,,,,,,,,,,,,,,,,,,,,,0,0,0,0,0,0,0,0,0,0,0,0,0,0,0,0,,,,,,,,,,,,,,,,,,,,,
969883,1745295206086,0.088,0.0,-76,,-0.06,-0.1,1.04,-1,-0,0,1.05,1.15,91,3636,0.0,3.02,,12.29,1.116,97.0,,31.1,5,,,,,,,,,,,,0,0,0,0,0,0,0,0,0,0,0,0,0,0,0,0,,,,,,0.0,,,,,,,,,,,,,,,
969903,1745295206108,0.0883,,,,,,,,,,,,,,,,,,,,,,,0,0,0,0,0.0,0.0,0.0,0.0,2.25,,,0,0,0,0,0,0,0,0,0,0,0,0,0,0,0,0,,0,,,,,38.985786,-76.950745,0.18,45.2,34,3,0.8,0,0.0,-1,0.0,,0,0.0011,0.0883
969923,1745295206128,0.0887,0.0,-87,,-0.06,-0.06,1.03,-1,-0,0,1.04,1.15,90,3720,0.0,2.82,,12.09,1.121,97.0,,30.6,5,,,,,,,,,,,,0,0,0,0,0,0,0,0,0,0,0,0,0,0,0,0,,,,,,0.0,,,,,,,,,,,,,,,
969943,1745295206148,0.089,,,,,,,,,,,,,,,,,,,,,,,,,,,,,,,,,,0,0,0,0,0,0,0,0,0,0,0,0,0,0,0,0,,,,,,,,,,,,,,,,,,,,,
969963,1745295206168,0.0893,0.0,-80,,-0.05,-0.03,1.02,-1,-0,0,1.02,1.15,88,3720,0.0,2.82,,12.09,1.121,97.0,,30.6,5,,,,,,,,,,,,0,0,0,0,0,0,0,0,0,0,0,0,0,0,0,0,,,,,,0.0,,,,,,,,,,,,,,,
969983,1745295206188,0.0896,,,,,,,,,,,,,,,,,,,,,,,,,,,,,,,,,,0,0,0,0,0,0,0,0,0,0,0,0,0,0,0,0,,,,,,,,,,,,,,,,,,,,,
970003,1745295206216,0.09,0.0,-80,,-0.06,-0.07,0.98,-0,-0,0,0.99,1.15,86,3608,0.0,2.79,,11.95,1.203,97.0,,30.4,5,0,0,0,0,0.0,0.0,0.0,0.0,2.25,,,0,0,0,0,0,0,0,0,0,0,0,0,0,0,0,0,,0,,,,0.0,38.985786,-76.950745,0.08,45.2,34,3,0.8,0,0.0,-1,0.0,0.0,0,0.0011,0.09
970023,1745295206236,0.0903,,,,,,,,,,,,,,,,,,,,,,,,,,,,,,,,,,0,0,0,0,0,0,0,0,0,0,0,0,0,0,0,0,,,,,,,,,,,,,,,,,,,,,
970043,1745295206256,0.0906,0.0,-83,,-0.08,-0.12,1.05,-1,-0,0,1.06,1.15,92,3494,0.0,2.82,,11.91,1.222,97.0,,30.4,5,,,,,,,,,,,,0,0,0,0,0,0,0,0,0,0,0,0,0,0,0,0,,,,,,0.0,,,,,,,,,,,,,,,
970063,1745295206276,0.091,,,,,,,,,,,,,,,,,,,,,,,,,,,,,,,,,,0,0,0,0,0,0,0,0,0,0,0,0,0,0,0,0,,,,,,,,,,,,,,,,,,,,,
970083,1745295206296,0.0913,0.0,-76,,-0.07,-0.05,0.97,-0,-0,0,0.97,1.15,84,3360,0.0,2.92,,11.93,1.165,97.0,,30.4,5,,,,,,,,,,,,0,0,0,0,0,0,0,0,0,0,0,0,0,0,0,0,,,,,,0.0,,,,,,,,,,,,,,,
970103,1745295206316,0.0916,,,,,,,,,,,,,,,,,,,,,,,0,0,0,0,0.0,0.0,0.0,0.0,2.26,,,0,0,0,0,0,0,0,0,0,0,0,0,0,0,0,0,,0,,,,,38.985786,-76.950745,0.04,45.3,34,3,0.8,0,0.0,-1,0.0,,0,0.0011,0.0916
970123,1745295206336,0.092,0.0,-72,,-0.07,-0.05,1.05,-1,-0,0,1.06,1.15,92,3414,0.0,2.91,,12.04,1.177,97.0,,28.5,5,,,,,,,,,,,,0,0,0,0,0,0,0,0,0,0,0,0,0,0,0,0,,,,,,0.0,,,,,,,,,,,,,,,
970143,1745295206356,0.0923,,,,,,,,,,,,,,,,,,,,,,,,,,,,,,,,,,0,0,0,0,0,0,0,0,0,0,0,0,0,0,0,0,,,,,,,,,,,,,,,,,,,,,
970163,1745295206376,0.0926,0.0,-68,,-0.08,-0.03,0.98,-0,-0,0,0.99,1.15,86,3221,0.6,3.18,,12.04,1.177,97.0,,28.5,5,,,,,,,,,,,,0,0,0,0,0,0,0,0,0,0,0,0,0,0,0,0,,,,,,0.0,,,,,,,,,,,,,,,
970183,1745295206396,0.093,,,,,,,,,,,,,,,,,,,,,,,,,,,,,,,,,,0,0,0,0,0,0,0,0,0,0,0,0,0,0,0,0,,,,,,,,,,,,,,,,,,,,,
970203,1745295206416,0.0933,0.0,-76,,-0.05,0.02,0.94,-1,-0,0,0.94,1.15,81,3221,0.6,3.18,,12.23,1.249,97.0,,27.3,5,0,0,0,0,0.0,0.0,0.0,0.0,2.26,,,0,0,0,0,0,0,0,0,0,0,0,0,0,0,0,0,,0,,,,0.0,38.985786,-76.950745,0.0,45.3,34,3,0.8,0,0.0,-1,0.0,0.0,0,0.0011,0.0933
970223,1745295206436,0.0936,,,,,,,,,,,,,,,,,,,,,,,,,,,,,,,,,,0,0,0,0,0,0,0,0,0,0,0,0,0,0,0,0,,,,,,,,,,,,,,,,,,,,,
970243,1745295206456,0.094,0.0,-83,,-0.05,0.05,0.96,-1,-0,1,0.97,1.15,84,3121,5.8,4.1,,12.61,1.187,97.0,,27.3,5,,,,,,,,,,,,0,0,0,0,0,0,0,0,0,0,0,0,0,0,0,0,,,,,,0.0,,,,,,,,,,,,,,,
970263,1745295206476,0.0943,,,,,,,,,,,,,,,,,,,,,,,,,,,,,,,,,,0,0,0,0,0,0,0,0,0,0,0,0,0,0,0,0,,,,,,,,,,,,,,,,,,,,,
970283,1745295206496,0.0946,0.0,-68,,-0.05,0.0,1.04,-1,-0,1,1.04,1.15,90,3093,8.9,3.97,,13.11,1.119,97.0,,27.3,5,,,,,,,,,,,,0,0,0,0,0,0,0,0,0,0,0,0,0,0,0,0,,,,,,0.0,,,,,,,,,,,,,,,
970303,1745295206516,0.095,,,,,,,,,,,,,,,,,,,,,,,0,0,0,0,0.0,0.0,0.0,0.0,2.25,,,0,0,0,0,0,0,0,0,0,0,0,0,0,0,0,0,,0,,,,,38.985786,-76.950745,0.16,45.3,34,3,0.8,0,0.0,-1,0.0,,0,0.0011,0.095
970323,1745295206536,0.0953,0.0,-91,,-0.07,-0.06,1.11,-1,-0,1,1.12,1.15,97,3115,9.4,4.01,,13.28,1.108,97.0,,26.0,5,,,,,,,,,,,,0,0,0,0,0,0,0,0,0,0,0,0,0,0,0,0,,,,,,0.0,,,,,,,,,,,,,,,
970343,1745295206556,0.0956,,,,,,,,,,,,,,,,,,,,,,,,,,,,,,,,,,0,0,0,0,0,0,0,0,0,0,0,0,0,0,0,0,,,,,,,,,,,,,,,,,,,,,
970363,1745295206576,0.096,0.0,-61,,-0.08,-0.08,1.04,0,-0,-0,1.04,1.15,91,3214,9.7,3.97,,13.28,1.108,97.0,,26.0,5,,,,,,,,,,,,0,0,0,0,0,0,0,0,0,0,0,0,0,0,0,0,,,,,,0.0,,,,,,,,,,,,,,,
970383,1745295206596,0.0963,,,,,,,,,,,,,,,,,,,,,,,,,,,,,,,,,,0,0,0,0,0,0,0,0,0,0,0,0,0,0,0,0,,,,,,,,,,,,,,,,,,,,,
970403,1745295206616,0.0966,0.0,-76,13.55,-0.05,0.01,1.03,-1,-0,1,1.03,1.15,89,3214,9.7,3.97,15,13.4,1.114,97.0,173,27.2,5,0,0,0,0,0.0,0.0,0.0,0.0,2.26,0,1.0,0,0,0,0,0,0,0,0,0,0,0,0,0,0,0,0,0,0,1.0,0,0,0.0,38.985786,-76.950745,0.11,45.3,34,3,0.8,0,0.0,-1,0.0,0.0,0,0.0011,0.0966
970423,1745295206636,0.097,,,,,,,,,,,,,,,,,,,,,,,,,,,,,,,,,,0,0,0,0,0,0,0,0,0,0,0,0,0,0,0,0,,,,,,,,,,,,,,,,,,,,,
970443,1745295206656,0.0973,0.0,-68,,-0.07,-0.1,1.02,-0,-0,-0,1.03,1.15,89,3381,9.8,3.97,,13.35,1.121,97.0,,27.2,5,,,,,,,,,,,,0,0,0,0,0,0,0,0,0,0,0,0,0,0,0,0,,,,,,0.0,,,,,,,,,,,,,,,
970463,1745295206676,0.0976,,,,,,,,,,,,,,,,,,,,,,,,,,,,,,,,,,0,0,0,0,0,0,0,0,0,0,0,0,0,0,0,0,,,,,,,,,,,,,,,,,,,,,
970483,1745295206696,0.098,0.0,-83,,-0.06,-0.01,1.03,-1,-0,1,1.03,1.15,90,3385,9.9,3.89,,13.33,1.12,97.0,,27.2,5,,,,,,,,,,,,0,0,0,0,0,0,0,0,0,0,0,0,0,0,0,0,,,,,,0.0,,,,,,,,,,,,,,,
970503,1745295206716,0.0983,,,,,,,,,,,,,,,,,,,,,,,0,0,0,0,0.0,0.0,0.0,0.0,2.26,,,0,0,0,0,0,0,0,0,0,0,0,0,0,0,0,0,,0,,,,,38.985786,-76.950745,0.08,45.3,34,3,0.8,0,0.0,-1,0.0,,0,0.0011,0.0983
970523,1745295206736,0.0986,0.0,-61,,-0.07,-0.02,0.98,-0,-0,-0,0.99,1.15,86,3443,10.1,3.94,,13.43,1.131,97.0,,27.9,5,,,,,,,,,,,,0,0,0,0,0,0,0,0,0,0,0,0,0,0,0,0,,,,,,0.0,,,,,,,,,,,,,,,
970543,1745295206756,0.099,,,,,,,,,,,,,,,,,,,,,,,,,,,,,,,,,,0,0,0,0,0,0,0,0,0,0,0,0,0,0,0,0,,,,,,,,,,,,,,,,,,,,,
970563,1745295206776,0.0993,0.0,-57,,-0.06,-0.06,1.05,-1,-0,0,1.05,1.15,91,3462,10.8,3.92,,13.43,1.131,97.0,,27.9,5,,,,,,,,,,,,0,0,0,0,0,0,0,0,0,0,0,0,0,0,0,0,,,,,,0.0,,,,,,,,,,,,,,,
970583,1745295206796,0.0996,,,,,,,,,,,,,,,,,,,,,,,,,,,,,,,,,,0,0,0,0,0,0,0,0,0,0,0,0,0,0,0,0,,,,,,,,,,,,,,,,,,,,,
970603,1745295206815,0.1,0.0,-68,,-0.05,-0.01,0.97,-1,-0,0,0.97,1.15,84,3462,10.8,3.92,,13.39,1.143,97.0,,29.1,5,0,0,0,0,0.0,0.0,0.0,0.0,2.26,,,0,0,0,0,0,0,0,0,0,0,0,0,0,0,0,0,,0,,,,0.0,38.985786,-76.950745,0.0,45.3,34,3,0.8,0,0.0,-1,0.0,0.0,0,0.0011,0.1
970623,1745295206835,0.1003,,,,,,,,,,,,,,,,,,,,,,,,,,,,,,,,,,0,0,0,0,0,0,0,0,0,0,0,0,0,0,0,0,,,,,,,,,,,,,,,,,,,,,
970643,1745295206855,0.1006,0.0,-68,,-0.08,-0.09,0.99,-0,-0,-0,0.99,1.15,86,3507,11.0,3.98,,13.43,1.136,97.0,,29.1,5,,,,,,,,,,,,0,0,0,0,0,0,0,0,0,0,0,0,0,0,0,0,,,,,,0.0,,,,,,,,,,,,,,,
970663,1745295206875,0.101,,,,,,,,,,,,,,,,,,,,,,,,,,,,,,,,,,0,0,0,0,0,0,0,0,0,0,0,0,0,0,0,0,,,,,,,,,,,,,,,,,,,,,
970683,1745295206895,0.1013,0.0,-57,,-0.08,-0.09,1.0,-1,-0,0,1.0,1.15,87,3583,11.2,3.96,,13.4,1.136,97.0,,29.1,5,,,,,,,,,,,,0,0,0,0,0,0,0,0,0,0,0,0,0,0,0,0,,,,,,0.0,,,,,,,,,,,,,,,
970703,1745295206917,0.1016,,,,,,,,,,,,,,,,,,,,,,,0,0,0,0,0.0,0.0,0.0,0.0,2.26,,,0,0,0,0,0,0,0,0,0,0,0,0,0,0,0,0,,0,,,,,38.985786,-76.950745,0.04,45.3,34,3,0.8,0,0.0,-1,0.0,,0,0.0011,0.1016
970723,1745295206937,0.102,0.0,-61,,-0.09,-0.03,1.0,-1,-0,0,1.01,1.15,87,3676,11.3,3.85,,13.33,1.137,97.0,,30.3,5,,,,,,,,,,,,0,0,0,0,0,0,0,0,0,0,0,0,0,0,0,0,,,,,,0.0,,,,,,,,,,,,,,,
970743,1745295206957,0.1023,,,,,,,,,,,,,,,,,,,,,,,,,,,,,,,,,,0,0,0,0,0,0,0,0,0,0,0,0,0,0,0,0,,,,,,,,,,,,,,,,,,,,,
970763,1745295206977,0.1026,0.0,-64,,-0.08,-0.03,1.0,-1,-0,1,1.01,1.15,87,3676,11.3,3.85,,13.33,1.137,97.0,,30.3,5,,,,,,,,,,,,0,0,0,0,0,0,0,0,0,0,0,0,0,0,0,0,,,,,,0.0,,,,,,,,,,,,,,,
970783,1745295206997,0.103,,,,,,,,,,,,,,,,,,,,,,,,,,,,,,,,,,0,0,0,0,0,0,0,0,0,0,0,0,0,0,0,0,,,,,,,,,,,,,,,,,,,,,
970803,1745295207005,0.1033,0.0,-72,,-0.07,-0.04,0.99,-1,-0,0,0.99,1.15,86,3695,11.5,3.75,,13.25,1.139,97.0,,31.4,5,0,0,0,0,0.0,0.0,0.0,0.0,2.25,,,0,0,0,0,0,0,0,0,0,0,0,0,0,0,0,0,,0,,,,0.0,38.985786,-76.950745,0.11,45.3,34,3,0.8,0,0.0,-1,0.0,0.0,0,0.0011,0.1033
970823,1745295207025,0.1036,,,,,,,,,,,,,,,,,,,,,,,,,,,,,,,,,,0,0,0,0,0,0,0,0,0,0,0,0,0,0,0,0,,,,,,,,,,,,,,,,,,,,,
970903,1745295207115,0.105,,,,,,,,,,,,,,,,,,,,,,,0,0,0,0,0.0,0.0,0.0,0.0,2.25,,,0,0,0,0,0,0,0,0,0,0,0,0,0,0,0,0,,0,,,,,38.985786,-76.950745,0.08,45.3,34,3,0.8,0,0.0,-1,0.0,,0,0.0011,0.105
970983,1745295207195,0.1063,,,,,,,,,,,,,,,,,,,,,,,,,,,,,,,,,,0,0,0,0,0,0,0,0,0,0,0,0,0,0,0,0,,,,,,,,,,,,,,,,,,,,,
971443,1745295207657,0.114,0.0,-68,,-0.0,-0.01,1.0,0,-0,0,1.0,1.15,87,3581,19.8,4.45,,13.84,1.158,97.0,,31.4,5,,,,,,,,,,,,0,0,0,0,0,0,0,0,0,0,0,0,0,0,0,0,,,,,,0.0,,,,,,,,,,,,,,,
971463,1745295207677,0.1143,,,,,,,,,,,,,,,,,,,,,,,,,,,,,,,,,,0,0,0,0,0,0,0,0,0,0,0,0,0,0,0,0,,,,,,,,,,,,,,,,,,,,,
971483,1745295207697,0.1146,0.0,-38,,0.02,0.04,0.92,0,-0,-0,0.92,1.15,80,3353,20.0,4.52,,13.95,1.164,97.0,,31.4,5,,,,,,,,,,,,0,0,0,0,0,0,0,0,0,0,0,0,0,0,0,0,,,,,,0.0,,,,,,,,,,,,,,,
971503,1745295207717,0.115,,,,,,,,,,,,,,,,,,,,,,,0,0,0,0,0.0,0.0,0.0,0.0,2.25,,,0,0,0,0,0,0,0,0,0,0,0,0,0,0,0,0,,0,,,,,38.985786,-76.950745,1.09,45.3,34,3,0.8,0,0.0,-1,0.0,,0,0.0011,0.115
971523,1745295207737,0.1153,0.0,-53,,0.04,0.05,0.97,-0,-0,0,0.97,1.15,84,3230,20.1,4.71,,13.96,1.162,97.0,,28.5,5,,,,,,,,,,,,0,0,0,0,0,0,0,0,0,0,0,0,0,0,0,0,,,,,,0.0,,,,,,,,,,,,,,,
971543,1745295207757,0.1156,,,,,,,,,,,,,,,,,,,,,,,,,,,,,,,,,,0,0,0,0,0,0,0,0,0,0,0,0,0,0,0,0,,,,,,,,,,,,,,,,,,,,,
971563,1745295207777,0.116,0.0,-42,,0.04,-0.01,1.05,-0,-0,1,1.05,1.15,91,3106,22.8,4.75,,13.96,1.162,97.0,,28.5,5,,,,,,,,,,,,0,0,0,0,0,0,0,0,0,0,0,0,0,0,0,0,,,,,,0.0,,,,,,,,,,,,,,,
971583,1745295207797,0.1163,,,,,,,,,,,,,,,,,,,,,,,,,,,,,,,,,,0,0,0,0,0,0,0,0,0,0,0,0,0,0,0,0,,,,,,,,,,,,,,,,,,,,,
971603,1745295207816,0.1166,0.0,-46,,0.03,-0.11,1.14,-1,-0,1,1.14,1.15,99,3106,22.8,4.75,,14.07,1.145,97.0,,25.6,5,0,0,0,0,0.0,0.0,0.0,0.0,2.25,,,0,0,0,0,0,0,0,0,0,0,0,0,0,0,0,0,,0,,,,0.0,38.985786,-76.950745,1.58,45.3,34,3,0.8,0,0.0,-1,0.0,0.0,0,0.0019,0.1166
971623,1745295207836,0.117,,,,,,,,,,,,,,,,,,,,,,,,,,,,,,,,,,0,0,0,0,0,0,0,0,0,0,0,0,0,0,0,0,,,,,,,,,,,,,,,,,,,,,
971643,1745295207856,0.1173,0.0,-53,,-0.0,-0.14,1.11,0,-0,0,1.12,1.15,97,3109,25.3,4.37,,14.16,1.123,97.0,,25.6,5,,,,,,,,,,,,0,0,0,0,0,0,0,0,0,0,0,0,0,0,0,0,,,,,,0.0,,,,,,,,,,,,,,,
971663,1745295207876,0.1176,,,,,,,,,,,,,,,,,,,,,,,,,,,,,,,,,,0,0,0,0,0,0,0,0,0,0,0,0,0,0,0,0,,,,,,,,,,,,,,,,,,,,,
971683,1745295207896,0.118,0.0,-34,,0.04,-0.08,1.1,-0,-0,1,1.11,1.15,96,3474,30.0,4.79,,14.19,1.118,97.0,,25.6,5,,,,,,,,,,,,0,0,0,0,0,0,0,0,0,0,0,0,0,0,0,0,,,,,,0.0,,,,,,,,,,,,,,,
971703,1745295207914,0.1183,,,,,,,,,,,,,,,,,,,,,,,1,0,0,1,0.0,0.0,0.0,0.0,2.26,,,0,0,0,0,0,0,0,0,0,0,0,0,0,0,0,0,,0,,,,,38.985786,-76.950745,2.04,45.3,34,3,0.8,0,0.0,-1,0.0,,0,0.0019,0.1183
971723,1745295207934,0.1186,0.0,-53,,0.01,-0.11,1.05,0,-0,-0,1.06,1.15,92,3333,33.3,4.89,,14.26,1.052,97.0,,28.0,5,,,,,,,,,,,,0,0,0,0,0,0,0,0,0,0,0,0,0,0,0,0,,,,,,0.0,,,,,,,,,,,,,,,
971743,1745295207954,0.119,,,,,,,,,,,,,,,,,,,,,,,,,,,,,,,,,,0,0,0,0,0,0,0,0,0,0,0,0,0,0,0,0,,,,,,,,,,,,,,,,,,,,,
971763,1745295207974,0.1193,0.0,-31,,0.03,-0.11,1.07,-0,-0,1,1.08,1.15,94,3333,33.3,4.89,,14.26,1.052,97.0,,28.0,5,,,,,,,,,,,,0,0,0,0,0,0,0,0,0,0,0,0,0,0,0,0,,,,,,0.0,,,,,,,,,,,,,,,
971783,1745295207994,0.1196,,,,,,,,,,,,,,,,,,,,,,,,,,,,,,,,,,0,0,0,0,0,0,0,0,0,0,0,0,0,0,0,0,,,,,,,,,,,,,,,,,,,,,
971803,1745295208006,0.12,0.0,-34,,0.04,-0.09,1.02,0,-0,0,1.03,1.15,89,3449,34.6,4.67,,14.3,1.04,97.0,,28.7,5,1,0,1,1,0.0,0.0,0.0,0.0,2.25,,,0,0,0,0,0,0,0,0,0,0,0,0,0,0,0,0,,0,,,,0.0,38.985786,-76.950745,2.58,45.3,34,3,0.8,0,0.0,-1,0.0,0.0,0,0.002,0.12
971823,1745295208026,0.1203,,,,,,,,,,,,,,,,,,,,,,,,,,,,,,,,,,0,0,0,0,0,0,0,0,0,0,0,0,0,0,0,0,,,,,,,,,,,,,,,,,,,,,
971843,1745295208046,0.1206,0.0,-38,,0.04,-0.08,1.06,-0,-0,1,1.06,1.15,92,3426,35.1,4.61,,14.26,1.034,97.0,,28.7,5,,,,,,,,,,,,0,0,0,0,0,0,0,0,0,0,0,0,0,0,0,0,,,,,,0.0,,,,,,,,,,,,,,,
971863,1745295208066,0.121,,,,,,,,,,,,,,,,,,,,,,,,,,,,,,,,,,0,0,0,0,0,0,0,0,0,0,0,0,0,0,0,0,,,,,,,,,,,,,,,,,,,,,
971883,1745295208086,0.1213,0.0,-42,,0.04,-0.04,1.01,0,-0,-0,1.01,1.15,88,3329,35.5,4.51,,14.27,1.041,97.0,,28.7,5,,,,,,,,,,,,0,0,0,0,0,0,0,0,0,0,0,0,0,0,0,0,,,,,,0.0,,,,,,,,,,,,,,,
971903,1745295208110,0.1216,,,,,,,,,,,,,,,,,,,,,,,2,0,2,2,0.0,0.0,0.0,0.0,2.25,,,0,0,0,0,0,0,0,0,0,0,0,0,0,0,0,0,,0,,,,,38.985786,-76.950745,3.03,45.3,34,3,0.8,0,0.0,-1,0.0,,0,0.002,0.1216
971923,1745295208130,0.122,0.0,-53,,0.07,-0.02,1.04,0,-0,0,1.04,1.15,90,3371,35.6,4.49,,14.3,1.061,97.0,,28.1,5,,,,,,,,,,,,0,0,0,0,0,0,0,0,0,0,0,0,0,0,0,0,,,,,,0.0,,,,,,,,,,,,,,,
971943,1745295208150,0.1223,,,,,,,,,,,,,,,,,,,,,,,,,,,,,,,,,,0,0,0,0,0,0,0,0,0,0,0,0,0,0,0,0,,,,,,,,,,,,,,,,,,,,,
971963,1745295208170,0.1226,0.0,-38,,0.03,-0.09,1.06,1,-0,-0,1.06,1.15,92,3229,35.7,4.47,,14.3,1.061,97.0,,28.1,5,,,,,,,,,,,,0,0,0,0,0,0,0,0,0,0,0,0,0,0,0,0,,,,,,0.0,,,,,,,,,,,,,,,
971983,1745295208190,0.123,,,,,,,,,,,,,,,,,,,,,,,,,,,,,,,,,,0,0,0,0,0,0,0,0,0,0,0,0,0,0,0,0,,,,,,,,,,,,,,,,,,,,,
972003,1745295208216,0.1233,0.0,-38,,0.05,0.01,0.96,1,-0,-0,0.97,1.15,84,3229,35.7,4.47,,14.3,1.076,97.0,,27.2,5,2,0,2,2,0.0,0.0,0.0,0.0,2.26,,,0,0,0,0,0,0,0,0,0,0,0,0,0,0,0,0,,0,,,,0.0,38.985786,-76.950745,3.49,45.3,34,3,0.8,0,0.0,-1,0.0,0.0,0,0.0021,0.1233
972023,1745295208236,0.1236,,,,,,,,,,,,,,,,,,,,,,,,,,,,,,,,,,0,0,0,0,0,0,0,0,0,0,0,0,0,0,0,0,,,,,,,,,,,,,,,,,,,,,
972043,1745295208256,0.124,0.0,-46,,0.05,-0.03,1.03,0,-0,0,1.04,1.15,90,3214,35.7,4.47,,14.28,1.086,97.0,,27.2,5,,,,,,,,,,,,0,0,0,0,0,0,0,0,0,0,0,0,0,0,0,0,,,,,,0.0,,,,,,,,,,,,,,,
972063,1745295208276,0.1243,,,,,,,,,,,,,,,,,,,,,,,,,,,,,,,,,,0,0,0,0,0,0,0,0,0,0,0,0,0,0,0,0,,,,,,,,,,,,,,,,,,,,,
972083,1745295208296,0.1246,0.0,-38,,0.07,0.07,1.04,0,-0,1,1.05,1.15,91,3595,35.7,4.45,,14.23,1.107,97.0,,27.2,5,,,,,,,,,,,,0,0,0,0,0,0,0,0,0,0,0,0,0,0,0,0,,,,,,0.0,,,,,,,,,,,,,,,
972103,1745295208315,0.125,,,,,,,,,,,,,,,,,,,,,,,2,0,2,2,0.0,0.0,0.0,0.0,2.26,,,0,0,0,0,0,0,0,0,0,0,0,0,0,0,0,0,,0,,,,,38.985786,-76.950745,4.05,45.3,34,3,0.8,0,0.0,-1,0.0,,0,0.0021,0.125
972123,1745295208335,0.1253,0.0,-42,,0.07,0.12,1.02,0,-0,0,1.03,1.15,89,4000,35.6,4.36,,14.27,1.1,97.0,,30.7,5,,,,,,,,,,,,0,0,0,0,0,0,0,0,0,0,0,0,0,0,0,0,,,,,,0.0,,,,,,,,,,,,,,,
972143,1745295208355,0.1256,,,,,,,,,,,,,,,,,,,,,,,,,,,,,,,,,,0,0,0,0,0,0,0,0,0,0,0,0,0,0,0,0,,,,,,,,,,,,,,,,,,,,,
972163,1745295208375,0.126,0.0,-27,,0.08,0.05,1.02,1,-0,0,1.02,1.15,89,3830,35.6,4.33,,14.27,1.1,97.0,,30.7,5,,,,,,,,,,,,0,0,0,0,0,0,0,0,0,0,0,0,0,0,0,0,,,,,,0.0,,,,,,,,,,,,,,,
972183,1745295208395,0.1263,,,,,,,,,,,,,,,,,,,,,,,,,,,,,,,,,,0,0,0,0,0,0,0,0,0,0,0,0,0,0,0,0,,,,,,,,,,,,,,,,,,,,,
972203,1745295208418,0.1266,0.0,-27,,0.09,0.09,1.02,1,-0,0,1.02,1.15,89,3830,35.6,4.33,,14.19,1.034,97.0,,33.0,5,2,0,3,3,0.0,0.0,0.0,0.0,2.25,,,0,0,0,0,0,0,0,0,0,0,0,0,0,0,0,0,,0,,,,0.0,38.985786,-76.950752,4.46,45.3,34,3,0.8,0,0.0,-1,0.0,0.0,0,0.0022,0.1266
972223,1745295208438,0.127,,,,,,,,,,,,,,,,,,,,,,,,,,,,,,,,,,0,0,0,0,0,0,0,0,0,0,0,0,0,0,0,0,,,,,,,,,,,,,,,,,,,,,
972243,1745295208458,0.1273,0.0,-38,,0.12,0.12,1.04,1,-0,0,1.05,1.15,91,3905,35.6,4.36,,14.2,1.028,97.0,,33.0,5,,,,,,,,,,,,0,0,0,0,0,0,0,0,0,0,0,0,0,0,0,0,,,,,,0.0,,,,,,,,,,,,,,,
972263,1745295208478,0.1276,,,,,,,,,,,,,,,,,,,,,,,,,,,,,,,,,,0,0,0,0,0,0,0,0,0,0,0,0,0,0,0,0,,,,,,,,,,,,,,,,,,,,,
972283,1745295208498,0.128,0.0,-31,,0.12,0.13,1.03,1,-0,1,1.05,1.15,91,3771,35.7,4.34,,14.23,1.042,97.0,,33.0,5,,,,,,,,,,,,0,0,0,0,0,0,0,0,0,0,0,0,0,0,0,0,,,,,,0.0,,,,,,,,,,,,,,,
972303,1745295208518,0.1283,,,,,,,,,,,,,,,,,,,,,,,3,0,3,3,0.0,0.0,0.0,0.0,2.25,,,0,0,0,0,0,0,0,0,0,0,0,0,0,0,0,0,,0,,,,,38.985786,-76.950752,5.07,45.3,34,3,0.8,0,0.0,-1,0.0,,0,0.0023,0.1283
